[
	{
		"name": "Hohhot",
		"id": "201",
		"country_id": "CN",
		"longitude": "111.659995",
		"latitude": "40.819975"
	},
	{
		"name": "Heze",
		"id": "200",
		"country_id": "CN",
		"longitude": "115.450048",
		"latitude": "35.22998"
	},
	{
		"name": "Hengyang",
		"id": "199",
		"country_id": "CN",
		"longitude": "112.590016",
		"latitude": "26.880025"
	},
	{
		"name": "Hefei",
		"id": "198",
		"country_id": "CN",
		"longitude": "117.280014",
		"latitude": "31.850031"
	},
	{
		"name": "Hangzhou",
		"id": "197",
		"country_id": "CN",
		"longitude": "120.170019",
		"latitude": "30.249974"
	},
	{
		"name": "Handan",
		"id": "196",
		"country_id": "CN",
		"longitude": "114.479978",
		"latitude": "36.579975"
	},
	{
		"name": "Haerbin",
		"id": "195",
		"country_id": "CN",
		"longitude": "126.649985",
		"latitude": "45.749984"
	},
	{
		"name": "Guiyang",
		"id": "194",
		"country_id": "CN",
		"longitude": "106.720039",
		"latitude": "26.580043"
	},
	{
		"name": "Guilin",
		"id": "193",
		"country_id": "CN",
		"longitude": "110.280028",
		"latitude": "25.279993"
	},
	{
		"name": "Guangzhou",
		"id": "192",
		"country_id": "CN",
		"longitude": "113.32501",
		"latitude": "23.144981"
	},
	{
		"name": "Fuzhou",
		"id": "191",
		"country_id": "CN",
		"longitude": "119.300046",
		"latitude": "26.079996"
	},
	{
		"name": "Fuyang",
		"id": "190",
		"country_id": "CN",
		"longitude": "119.951944",
		"latitude": "30.053333"
	},
	{
		"name": "Fuxin",
		"id": "189",
		"country_id": "CN",
		"longitude": "121.660005",
		"latitude": "42.010471"
	},
	{
		"name": "Fushun",
		"id": "188",
		"country_id": "CN",
		"longitude": "123.87",
		"latitude": "41.865389"
	},
	{
		"name": "Foshan",
		"id": "187",
		"country_id": "CN",
		"longitude": "113.12001",
		"latitude": "23.030053"
	},
	{
		"name": "Donguan",
		"id": "186",
		"country_id": "CN",
		"longitude": "NULL",
		"latitude": "NULL"
	},
	{
		"name": "Datong",
		"id": "185",
		"country_id": "CN",
		"longitude": "113.299999",
		"latitude": "40.08002"
	},
	{
		"name": "Daqing",
		"id": "184",
		"country_id": "CN",
		"longitude": "125.000008",
		"latitude": "46.579959"
	},
	{
		"name": "Dandong",
		"id": "183",
		"country_id": "CN",
		"longitude": "124.393585",
		"latitude": "40.143608"
	},
	{
		"name": "Dalian",
		"id": "182",
		"country_id": "CN",
		"longitude": "121.629831",
		"latitude": "38.922838"
	},
	{
		"name": "Chongqing",
		"id": "181",
		"country_id": "CN",
		"longitude": "106.594982",
		"latitude": "29.564977"
	},
	{
		"name": "Chifeng",
		"id": "180",
		"country_id": "CN",
		"longitude": "118.94999",
		"latitude": "42.270015"
	},
	{
		"name": "Chengdu",
		"id": "179",
		"country_id": "CN",
		"longitude": "104.070019",
		"latitude": "30.67"
	},
	{
		"name": "Changzhou",
		"id": "178",
		"country_id": "CN",
		"longitude": "119.969979",
		"latitude": "31.779984"
	},
	{
		"name": "Changsha",
		"id": "177",
		"country_id": "CN",
		"longitude": "112.969993",
		"latitude": "28.19997"
	},
	{
		"name": "Changde",
		"id": "176",
		"country_id": "CN",
		"longitude": "111.680046",
		"latitude": "29.029997"
	},
	{
		"name": "Changchun",
		"id": "175",
		"country_id": "CN",
		"longitude": "125.339987",
		"latitude": "43.865009"
	},
	{
		"name": "Benxi",
		"id": "174",
		"country_id": "CN",
		"longitude": "123.750007",
		"latitude": "41.330383"
	},
	{
		"name": "Bengbu",
		"id": "173",
		"country_id": "CN",
		"longitude": "117.330037",
		"latitude": "32.94999"
	},
	{
		"name": "Beijing",
		"id": "172",
		"country_id": "CN",
		"longitude": "116.388286",
		"latitude": "39.928892"
	},
	{
		"name": "Baotou",
		"id": "171",
		"country_id": "CN",
		"longitude": "109.82202",
		"latitude": "40.652207"
	},
	{
		"name": "Baoding",
		"id": "170",
		"country_id": "CN",
		"longitude": "115.480021",
		"latitude": "38.87043"
	},
	{
		"name": "Anyang",
		"id": "169",
		"country_id": "CN",
		"longitude": "114.350012",
		"latitude": "36.07998"
	},
	{
		"name": "Anshun",
		"id": "168",
		"country_id": "CN",
		"longitude": "105.930009",
		"latitude": "26.250399"
	},
	{
		"name": "Anshan",
		"id": "167",
		"country_id": "CN",
		"longitude": "122.94003",
		"latitude": "41.115021"
	},
	{
		"name": "Valparaiso",
		"id": "166",
		"country_id": "CL",
		"longitude": "-71.621014",
		"latitude": "-33.047764"
	},
	{
		"name": "Santiago",
		"id": "165",
		"country_id": "CL",
		"longitude": "-70.667041",
		"latitude": "-33.450014"
	},
	{
		"name": "NDjamena",
		"id": "164",
		"country_id": "TD",
		"longitude": "NULL",
		"latitude": "NULL"
	},
	{
		"name": "Vancouver",
		"id": "163",
		"country_id": "CA",
		"longitude": "-123.121644",
		"latitude": "49.273417"
	},
	{
		"name": "Toronto",
		"id": "162",
		"country_id": "CA",
		"longitude": "-79.420021",
		"latitude": "43.69998"
	},
	{
		"name": "Gatineau",
		"id": "161",
		"country_id": "CA",
		"longitude": "NULL",
		"latitude": "NULL"
	},
	{
		"name": "Montreal",
		"id": "160",
		"country_id": "CA",
		"longitude": "-73.583297",
		"latitude": "45.499999"
	},
	{
		"name": "Edmonton",
		"id": "159",
		"country_id": "CA",
		"longitude": "-113.499982",
		"latitude": "53.550025"
	},
	{
		"name": "Calgary",
		"id": "158",
		"country_id": "CA",
		"longitude": "-114.079998",
		"latitude": "51.082992"
	},
	{
		"name": "YaoundZ",
		"id": "157",
		"country_id": "CM",
		"longitude": "NULL",
		"latitude": "NULL"
	},
	{
		"name": "Douala",
		"id": "156",
		"country_id": "CM",
		"longitude": "9.709991",
		"latitude": "4.06041"
	},
	{
		"name": "Phnom Penh",
		"id": "155",
		"country_id": "KH",
		"longitude": "104.916634",
		"latitude": "11.55003"
	},
	{
		"name": "Ouagadougou",
		"id": "154",
		"country_id": "BF",
		"longitude": "-1.524724",
		"latitude": "12.370316"
	},
	{
		"name": "Sofia",
		"id": "153",
		"country_id": "BG",
		"longitude": "23.316654",
		"latitude": "42.683349"
	},
	{
		"name": "Teresina",
		"id": "152",
		"country_id": "BR",
		"longitude": "-42.780009",
		"latitude": "-5.095"
	},
	{
		"name": "Sao Paulo",
		"id": "151",
		"country_id": "BR",
		"longitude": "-46.62502",
		"latitude": "-23.55868"
	},
	{
		"name": "Salvador",
		"id": "150",
		"country_id": "BR",
		"longitude": "-38.479987",
		"latitude": "-12.969972"
	},
	{
		"name": "Rio de Janeiro",
		"id": "149",
		"country_id": "BR",
		"longitude": "-43.225021",
		"latitude": "-22.925023"
	},
	{
		"name": "Recife",
		"id": "148",
		"country_id": "BR",
		"longitude": "-34.915606",
		"latitude": "-8.075645"
	},
	{
		"name": "Porto Alegre",
		"id": "147",
		"country_id": "BR",
		"longitude": "-51.200012",
		"latitude": "-30.050015"
	},
	{
		"name": "Norte Nordeste Catarinense",
		"id": "146",
		"country_id": "BR",
		"longitude": "NULL",
		"latitude": "NULL"
	},
	{
		"name": "Natal",
		"id": "145",
		"country_id": "BR",
		"longitude": "-35.240004",
		"latitude": "-5.780023"
	},
	{
		"name": "Manaus",
		"id": "144",
		"country_id": "BR",
		"longitude": "-60.000018",
		"latitude": "-3.100032"
	},
	{
		"name": "Maceio",
		"id": "143",
		"country_id": "BR",
		"longitude": "-35.729974",
		"latitude": "-9.619996"
	},
	{
		"name": "Joao Pessoa",
		"id": "142",
		"country_id": "BR",
		"longitude": "-34.876071",
		"latitude": "-7.101135"
	},
	{
		"name": "Grande Vitoria",
		"id": "141",
		"country_id": "BR",
		"longitude": "NULL",
		"latitude": "NULL"
	},
	{
		"name": "Grand So Lus",
		"id": "140",
		"country_id": "BR",
		"longitude": "NULL",
		"latitude": "NULL"
	},
	{
		"name": "Goiana",
		"id": "139",
		"country_id": "BR",
		"longitude": "-34.999993",
		"latitude": "-7.559604"
	},
	{
		"name": "Fortaleza",
		"id": "138",
		"country_id": "BR",
		"longitude": "-38.579981",
		"latitude": "-3.750018"
	},
	{
		"name": "Florianopolis",
		"id": "137",
		"country_id": "BR",
		"longitude": "-48.520021",
		"latitude": "-27.579985"
	},
	{
		"name": "Curitiba",
		"id": "136",
		"country_id": "BR",
		"longitude": "-49.319998",
		"latitude": "-25.420013"
	},
	{
		"name": "Cuiaba",
		"id": "135",
		"country_id": "BR",
		"longitude": "-56.084985",
		"latitude": "-15.569607"
	},
	{
		"name": "Campo Grande",
		"id": "134",
		"country_id": "BR",
		"longitude": "-54.616625",
		"latitude": "-20.450032"
	},
	{
		"name": "Campinas",
		"id": "133",
		"country_id": "BR",
		"longitude": "-47.10003",
		"latitude": "-22.900012"
	},
	{
		"name": "Brasilia",
		"id": "132",
		"country_id": "BR",
		"longitude": "-47.916052",
		"latitude": "-15.78334"
	},
	{
		"name": "Belo Horizonte",
		"id": "131",
		"country_id": "BR",
		"longitude": "-43.915005",
		"latitude": "-19.915026"
	},
	{
		"name": "Belzm",
		"id": "130",
		"country_id": "BR",
		"longitude": "NULL",
		"latitude": "NULL"
	},
	{
		"name": "Baixada Santista",
		"id": "129",
		"country_id": "BR",
		"longitude": "-46.332943",
		"latitude": "-23.953724"
	},
	{
		"name": "Santa Cruz",
		"id": "128",
		"country_id": "BO",
		"longitude": "-63.225996",
		"latitude": "-17.753918"
	},
	{
		"name": "La Paz",
		"id": "127",
		"country_id": "BO",
		"longitude": "-68.149985",
		"latitude": "-16.497974"
	},
	{
		"name": "Cotonou",
		"id": "126",
		"country_id": "BJ",
		"longitude": "2.519991",
		"latitude": "6.400009"
	},
	{
		"name": "Brussels",
		"id": "125",
		"country_id": "BE",
		"longitude": "4.333317",
		"latitude": "50.833317"
	},
	{
		"name": "Antwerpen",
		"id": "124",
		"country_id": "BE",
		"longitude": "4.415017",
		"latitude": "51.220374"
	},
	{
		"name": "Minsk",
		"id": "123",
		"country_id": "BY",
		"longitude": "27.566627",
		"latitude": "53.899977"
	},
	{
		"name": "Rajshahi",
		"id": "122",
		"country_id": "BD",
		"longitude": "88.60502",
		"latitude": "24.374984"
	},
	{
		"name": "Khulna",
		"id": "121",
		"country_id": "BD",
		"longitude": "89.560001",
		"latitude": "22.839987"
	},
	{
		"name": "Dhaka",
		"id": "120",
		"country_id": "BD",
		"longitude": "90.408579",
		"latitude": "23.72306"
	},
	{
		"name": "Chittagong",
		"id": "119",
		"country_id": "BD",
		"longitude": "91.799967",
		"latitude": "22.329992"
	},
	{
		"name": "Baku",
		"id": "118",
		"country_id": "AZ",
		"longitude": "49.862217",
		"latitude": "40.395272"
	},
	{
		"name": "Sydney",
		"id": "117",
		"country_id": "AU",
		"longitude": "151.18518",
		"latitude": "-33.920011"
	},
	{
		"name": "Perth",
		"id": "116",
		"country_id": "AU",
		"longitude": "115.839999",
		"latitude": "-31.955015"
	},
	{
		"name": "Melbourne",
		"id": "115",
		"country_id": "AU",
		"longitude": "144.975016",
		"latitude": "-37.820031"
	},
	{
		"name": "Brisbane",
		"id": "114",
		"country_id": "AU",
		"longitude": "153.035093",
		"latitude": "-27.455031"
	},
	{
		"name": "Adelaide",
		"id": "113",
		"country_id": "AU",
		"longitude": "138.600005",
		"latitude": "-34.934988"
	},
	{
		"name": "Yerevan",
		"id": "112",
		"country_id": "AM",
		"longitude": "44.513551",
		"latitude": "40.181151"
	},
	{
		"name": "San Miguel de Tucuman",
		"id": "111",
		"country_id": "AR",
		"longitude": "-65.216624",
		"latitude": "-26.816"
	},
	{
		"name": "Rosario",
		"id": "110",
		"country_id": "AR",
		"longitude": "-60.666308",
		"latitude": "-32.95113"
	},
	{
		"name": "Mendoza",
		"id": "109",
		"country_id": "AR",
		"longitude": "-68.816611",
		"latitude": "-32.88333"
	},
	{
		"name": "Cordoba",
		"id": "108",
		"country_id": "AR",
		"longitude": "-64.182295",
		"latitude": "-31.399958"
	},
	{
		"name": "Buenos Aires",
		"id": "107",
		"country_id": "AR",
		"longitude": "-58.397531",
		"latitude": "-34.602502"
	},
	{
		"name": "Luanda",
		"id": "106",
		"country_id": "AO",
		"longitude": "13.234427",
		"latitude": "-8.838286"
	},
	{
		"name": "Huambo",
		"id": "105",
		"country_id": "AO",
		"longitude": "15.760009",
		"latitude": "-12.749985"
	},
	{
		"name": "Oran",
		"id": "104",
		"country_id": "DZ",
		"longitude": "-0.619973",
		"latitude": "35.710002"
	},
	{
		"name": "Algiers",
		"id": "103",
		"country_id": "DZ",
		"longitude": "3.050553",
		"latitude": "36.763065"
	},
	{
		"name": "Huaian",
		"id": "202",
		"country_id": "CN",
		"longitude": "NULL",
		"latitude": "NULL"
	},
	{
		"name": "Huaibei",
		"id": "203",
		"country_id": "CN",
		"longitude": "116.750021",
		"latitude": "33.950368"
	},
	{
		"name": "Huainan",
		"id": "204",
		"country_id": "CN",
		"longitude": "116.979981",
		"latitude": "32.629984"
	},
	{
		"name": "Huzhou",
		"id": "205",
		"country_id": "CN",
		"longitude": "120.099997",
		"latitude": "30.870375"
	},
	{
		"name": "Jiamusi",
		"id": "206",
		"country_id": "CN",
		"longitude": "130.350017",
		"latitude": "46.830021"
	},
	{
		"name": "Jiaozuo",
		"id": "207",
		"country_id": "CN",
		"longitude": "113.220004",
		"latitude": "35.250005"
	},
	{
		"name": "Jiaxing",
		"id": "208",
		"country_id": "CN",
		"longitude": "120.749983",
		"latitude": "30.770407"
	},
	{
		"name": "Jilin",
		"id": "209",
		"country_id": "CN",
		"longitude": "126.550043",
		"latitude": "43.849971"
	},
	{
		"name": "Jinan",
		"id": "210",
		"country_id": "CN",
		"longitude": "116.995019",
		"latitude": "36.674982"
	},
	{
		"name": "Jining",
		"id": "211",
		"country_id": "CN",
		"longitude": "113.080012",
		"latitude": "41.029988"
	},
	{
		"name": "Jinxi",
		"id": "212",
		"country_id": "CN",
		"longitude": "120.829978",
		"latitude": "40.750341"
	},
	{
		"name": "Jinzhou",
		"id": "213",
		"country_id": "CN",
		"longitude": "121.100039",
		"latitude": "41.12037"
	},
	{
		"name": "Jixi",
		"id": "214",
		"country_id": "CN",
		"longitude": "130.970031",
		"latitude": "45.29996"
	},
	{
		"name": "Kaifeng",
		"id": "215",
		"country_id": "CN",
		"longitude": "114.350012",
		"latitude": "34.850003"
	},
	{
		"name": "Kaohsiung",
		"id": "216",
		"country_id": "CN",
		"longitude": "NULL",
		"latitude": "NULL"
	},
	{
		"name": "Kunming",
		"id": "217",
		"country_id": "CN",
		"longitude": "102.679975",
		"latitude": "25.06998"
	},
	{
		"name": "Langfang",
		"id": "218",
		"country_id": "CN",
		"longitude": "116.679999",
		"latitude": "39.520364"
	},
	{
		"name": "Lanzhou",
		"id": "219",
		"country_id": "CN",
		"longitude": "103.792",
		"latitude": "36.056028"
	},
	{
		"name": "Leshan",
		"id": "220",
		"country_id": "CN",
		"longitude": "103.733348",
		"latitude": "29.567096"
	},
	{
		"name": "Lianyungang",
		"id": "221",
		"country_id": "CN",
		"longitude": "119.401111",
		"latitude": "41.24"
	},
	{
		"name": "Liaoyang",
		"id": "222",
		"country_id": "CN",
		"longitude": "123.180016",
		"latitude": "41.279998"
	},
	{
		"name": "Linfen",
		"id": "223",
		"country_id": "CN",
		"longitude": "111.520004",
		"latitude": "36.080342"
	},
	{
		"name": "Linyi",
		"id": "224",
		"country_id": "CN",
		"longitude": "118.329976",
		"latitude": "35.079989"
	},
	{
		"name": "Liuan",
		"id": "225",
		"country_id": "CN",
		"longitude": "116.480011",
		"latitude": "31.750348"
	},
	{
		"name": "Liupanshui",
		"id": "226",
		"country_id": "CN",
		"longitude": "NULL",
		"latitude": "NULL"
	},
	{
		"name": "Liuzhou",
		"id": "227",
		"country_id": "CN",
		"longitude": "109.250013",
		"latitude": "24.280002"
	},
	{
		"name": "Luoyang",
		"id": "228",
		"country_id": "CN",
		"longitude": "112.470075",
		"latitude": "34.679988"
	},
	{
		"name": "Luzhou",
		"id": "229",
		"country_id": "CN",
		"longitude": "105.380017",
		"latitude": "28.87998"
	},
	{
		"name": "Mianyang",
		"id": "230",
		"country_id": "CN",
		"longitude": "104.769977",
		"latitude": "31.469977"
	},
	{
		"name": "Mudanjiang",
		"id": "231",
		"country_id": "CN",
		"longitude": "129.590012",
		"latitude": "44.575017"
	},
	{
		"name": "Nanchang",
		"id": "232",
		"country_id": "CN",
		"longitude": "115.879996",
		"latitude": "28.679992"
	},
	{
		"name": "Nanchong",
		"id": "233",
		"country_id": "CN",
		"longitude": "106.129997",
		"latitude": "30.780433"
	},
	{
		"name": "Nanjing",
		"id": "234",
		"country_id": "CN",
		"longitude": "118.779974",
		"latitude": "32.050019"
	},
	{
		"name": "Nanning",
		"id": "235",
		"country_id": "CN",
		"longitude": "108.320044",
		"latitude": "22.819988"
	},
	{
		"name": "Nantong",
		"id": "236",
		"country_id": "CN",
		"longitude": "120.825017",
		"latitude": "32.030382"
	},
	{
		"name": "Nanyang",
		"id": "237",
		"country_id": "CN",
		"longitude": "112.53002",
		"latitude": "33.0004"
	},
	{
		"name": "Neijiang",
		"id": "238",
		"country_id": "CN",
		"longitude": "105.050011",
		"latitude": "29.580377"
	},
	{
		"name": "Ningbo",
		"id": "239",
		"country_id": "CN",
		"longitude": "121.550038",
		"latitude": "29.879971"
	},
	{
		"name": "Pingdingshan",
		"id": "240",
		"country_id": "CN",
		"longitude": "113.299999",
		"latitude": "33.730408"
	},
	{
		"name": "Pingxiang",
		"id": "241",
		"country_id": "CN",
		"longitude": "113.850043",
		"latitude": "27.620005"
	},
	{
		"name": "Qingdao",
		"id": "242",
		"country_id": "CN",
		"longitude": "120.330009",
		"latitude": "36.089979"
	},
	{
		"name": "Qinhuangdao",
		"id": "243",
		"country_id": "CN",
		"longitude": "119.620026",
		"latitude": "39.930365"
	},
	{
		"name": "Qiqihaer",
		"id": "244",
		"country_id": "CN",
		"longitude": "123.989992",
		"latitude": "47.344977"
	},
	{
		"name": "Quanzhou",
		"id": "245",
		"country_id": "CN",
		"longitude": "118.579987",
		"latitude": "24.900016"
	},
	{
		"name": "Shanghai",
		"id": "246",
		"country_id": "CN",
		"longitude": "121.436505",
		"latitude": "31.216452"
	},
	{
		"name": "Shangqiu",
		"id": "247",
		"country_id": "CN",
		"longitude": "115.650036",
		"latitude": "34.450415"
	},
	{
		"name": "Shantou",
		"id": "248",
		"country_id": "CN",
		"longitude": "116.670026",
		"latitude": "23.370006"
	},
	{
		"name": "Shaoxing",
		"id": "249",
		"country_id": "CN",
		"longitude": "120.570046",
		"latitude": "30.000377"
	},
	{
		"name": "Shenyang",
		"id": "250",
		"country_id": "CN",
		"longitude": "123.449974",
		"latitude": "41.804979"
	},
	{
		"name": "Shenzhen",
		"id": "251",
		"country_id": "CN",
		"longitude": "114.122123",
		"latitude": "22.552371"
	},
	{
		"name": "Shijiazhuang",
		"id": "252",
		"country_id": "CN",
		"longitude": "114.479978",
		"latitude": "38.050015"
	},
	{
		"name": "Suining",
		"id": "253",
		"country_id": "CN",
		"longitude": "105.533333",
		"latitude": "30.533333"
	},
	{
		"name": "Suzhou",
		"id": "254",
		"country_id": "CN",
		"longitude": "116.978889",
		"latitude": "33.636111"
	},
	{
		"name": "Suzhou, Jiangsu",
		"id": "255",
		"country_id": "CN",
		"longitude": "120.620017",
		"latitude": "31.300478"
	},
	{
		"name": "Taian",
		"id": "256",
		"country_id": "CN",
		"longitude": "117.120076",
		"latitude": "36.199998"
	},
	{
		"name": "Taichung",
		"id": "257",
		"country_id": "CN",
		"longitude": "NULL",
		"latitude": "NULL"
	},
	{
		"name": "Tainan",
		"id": "258",
		"country_id": "CN",
		"longitude": "NULL",
		"latitude": "NULL"
	},
	{
		"name": "Taipei",
		"id": "259",
		"country_id": "CN",
		"longitude": "NULL",
		"latitude": "NULL"
	},
	{
		"name": "Taiyuan",
		"id": "260",
		"country_id": "CN",
		"longitude": "112.545058",
		"latitude": "37.875012"
	},
	{
		"name": "Tangshan",
		"id": "261",
		"country_id": "CN",
		"longitude": "118.194377",
		"latitude": "39.624337"
	},
	{
		"name": "Tianjin",
		"id": "262",
		"country_id": "CN",
		"longitude": "117.200019",
		"latitude": "39.130026"
	},
	{
		"name": "Tianmen",
		"id": "263",
		"country_id": "CN",
		"longitude": "113.160007",
		"latitude": "30.650053"
	},
	{
		"name": "Tianshui",
		"id": "264",
		"country_id": "CN",
		"longitude": "105.919984",
		"latitude": "34.600019"
	},
	{
		"name": "Tongliao",
		"id": "265",
		"country_id": "CN",
		"longitude": "122.269994",
		"latitude": "43.619959"
	},
	{
		"name": "Urumqi",
		"id": "266",
		"country_id": "CN",
		"longitude": "87.575006",
		"latitude": "43.805012"
	},
	{
		"name": "Weifang",
		"id": "267",
		"country_id": "CN",
		"longitude": "119.10011",
		"latitude": "36.720406"
	},
	{
		"name": "Wenzhou",
		"id": "268",
		"country_id": "CN",
		"longitude": "120.650093",
		"latitude": "28.019981"
	},
	{
		"name": "Wuhan",
		"id": "269",
		"country_id": "CN",
		"longitude": "114.270017",
		"latitude": "30.580031"
	},
	{
		"name": "Wuhu",
		"id": "270",
		"country_id": "CN",
		"longitude": "118.369974",
		"latitude": "31.350424"
	},
	{
		"name": "Wuxi",
		"id": "271",
		"country_id": "CN",
		"longitude": "120.299985",
		"latitude": "31.579996"
	},
	{
		"name": "Xiamen",
		"id": "272",
		"country_id": "CN",
		"longitude": "118.080017",
		"latitude": "24.449992"
	},
	{
		"name": "Xian",
		"id": "273",
		"country_id": "CN",
		"longitude": "108.894996",
		"latitude": "34.275025"
	},
	{
		"name": "Xiangfan",
		"id": "274",
		"country_id": "CN",
		"longitude": "112.130044",
		"latitude": "32.019995"
	},
	{
		"name": "Xiantao",
		"id": "275",
		"country_id": "CN",
		"longitude": "113.440042",
		"latitude": "30.370406"
	},
	{
		"name": "Xianyang",
		"id": "276",
		"country_id": "CN",
		"longitude": "108.714722",
		"latitude": "34.345556"
	},
	{
		"name": "Xingyi",
		"id": "277",
		"country_id": "CN",
		"longitude": "104.890021",
		"latitude": "25.090418"
	},
	{
		"name": "Xining",
		"id": "278",
		"country_id": "CN",
		"longitude": "101.770005",
		"latitude": "36.619999"
	},
	{
		"name": "Xinxiang",
		"id": "279",
		"country_id": "CN",
		"longitude": "113.86999",
		"latitude": "35.32044"
	},
	{
		"name": "Xinyang",
		"id": "280",
		"country_id": "CN",
		"longitude": "114.069978",
		"latitude": "32.130376"
	},
	{
		"name": "Xinyu",
		"id": "281",
		"country_id": "CN",
		"longitude": "114.929977",
		"latitude": "27.80002"
	},
	{
		"name": "Xuanzhou",
		"id": "282",
		"country_id": "CN",
		"longitude": "118.755278",
		"latitude": "30.9525"
	},
	{
		"name": "Xuzhou",
		"id": "283",
		"country_id": "CN",
		"longitude": "117.18002",
		"latitude": "34.280012"
	},
	{
		"name": "Yancheng",
		"id": "284",
		"country_id": "CN",
		"longitude": "120.125278",
		"latitude": "33.385556"
	},
	{
		"name": "Yantai",
		"id": "285",
		"country_id": "CN",
		"longitude": "121.400021",
		"latitude": "37.530408"
	},
	{
		"name": "Yibin",
		"id": "286",
		"country_id": "CN",
		"longitude": "104.570041",
		"latitude": "28.769987"
	},
	{
		"name": "Yichang",
		"id": "287",
		"country_id": "CN",
		"longitude": "111.280019",
		"latitude": "30.699972"
	},
	{
		"name": "Yichun",
		"id": "288",
		"country_id": "CN",
		"longitude": "114.4",
		"latitude": "27.833333"
	},
	{
		"name": "Yichun",
		"id": "289",
		"country_id": "CN",
		"longitude": "114.4",
		"latitude": "27.833333"
	},
	{
		"name": "Yinchuan",
		"id": "290",
		"country_id": "CN",
		"longitude": "106.273037",
		"latitude": "38.467974"
	},
	{
		"name": "Yingkou",
		"id": "291",
		"country_id": "CN",
		"longitude": "122.280019",
		"latitude": "40.670346"
	},
	{
		"name": "Yiyang",
		"id": "292",
		"country_id": "CN",
		"longitude": "112.330032",
		"latitude": "28.600411"
	},
	{
		"name": "Yongzhou",
		"id": "293",
		"country_id": "CN",
		"longitude": "111.619998",
		"latitude": "26.230374"
	},
	{
		"name": "Yuci",
		"id": "294",
		"country_id": "CN",
		"longitude": "112.730008",
		"latitude": "37.680399"
	},
	{
		"name": "Yueyang",
		"id": "295",
		"country_id": "CN",
		"longitude": "113.100011",
		"latitude": "29.380053"
	},
	{
		"name": "Yulin",
		"id": "296",
		"country_id": "CN",
		"longitude": "109.733291",
		"latitude": "38.283308"
	},
	{
		"name": "Zaozhuang",
		"id": "297",
		"country_id": "CN",
		"longitude": "117.570022",
		"latitude": "34.880001"
	},
	{
		"name": "Zhangjiakou",
		"id": "298",
		"country_id": "CN",
		"longitude": "114.929977",
		"latitude": "40.83"
	},
	{
		"name": "Zhanjiang",
		"id": "299",
		"country_id": "CN",
		"longitude": "110.380022",
		"latitude": "21.199984"
	},
	{
		"name": "Zhaotong",
		"id": "300",
		"country_id": "CN",
		"longitude": "103.720015",
		"latitude": "27.320385"
	},
	{
		"name": "Zhengzhou",
		"id": "301",
		"country_id": "CN",
		"longitude": "113.665093",
		"latitude": "34.754996"
	},
	{
		"name": "Zhenjiang",
		"id": "302",
		"country_id": "CN",
		"longitude": "119.430012",
		"latitude": "32.219983"
	},
	{
		"name": "Zhuhai",
		"id": "303",
		"country_id": "CN",
		"longitude": "113.567778",
		"latitude": "22.276944"
	},
	{
		"name": "Zhuzhou",
		"id": "304",
		"country_id": "CN",
		"longitude": "113.150034",
		"latitude": "27.829992"
	},
	{
		"name": "Zibo",
		"id": "305",
		"country_id": "CN",
		"longitude": "118.049993",
		"latitude": "36.799988"
	},
	{
		"name": "Zigong",
		"id": "306",
		"country_id": "CN",
		"longitude": "104.780002",
		"latitude": "29.4"
	},
	{
		"name": "Zunyi",
		"id": "307",
		"country_id": "CN",
		"longitude": "106.920026",
		"latitude": "27.700026"
	},
	{
		"name": "Barranquilla",
		"id": "308",
		"country_id": "CO",
		"longitude": "-74.799967",
		"latitude": "10.959989"
	},
	{
		"name": "Bogota",
		"id": "309",
		"country_id": "CO",
		"longitude": "-74.083344",
		"latitude": "4.596424"
	},
	{
		"name": "Bucaramanga",
		"id": "310",
		"country_id": "CO",
		"longitude": "-73.125883",
		"latitude": "7.130093"
	},
	{
		"name": "Cali",
		"id": "311",
		"country_id": "CO",
		"longitude": "-76.499966",
		"latitude": "3.399959"
	},
	{
		"name": "Cartagena",
		"id": "312",
		"country_id": "CO",
		"longitude": "-75.514394",
		"latitude": "10.399739"
	},
	{
		"name": "Medellin",
		"id": "313",
		"country_id": "CO",
		"longitude": "-75.57501",
		"latitude": "6.275003"
	},
	{
		"name": "Brazzaville",
		"id": "314",
		"country_id": "CD",
		"longitude": "NULL",
		"latitude": "NULL"
	},
	{
		"name": "San Jose",
		"id": "315",
		"country_id": "CR",
		"longitude": "-84.084051",
		"latitude": "9.935012"
	},
	{
		"name": "Abidjan",
		"id": "316",
		"country_id": "CI",
		"longitude": "-4.040048",
		"latitude": "5.319997"
	},
	{
		"name": "Havana",
		"id": "317",
		"country_id": "CU",
		"longitude": "-82.364182",
		"latitude": "23.131959"
	},
	{
		"name": "Prague",
		"id": "318",
		"country_id": "CZ",
		"longitude": "NULL",
		"latitude": "NULL"
	},
	{
		"name": "Kananga",
		"id": "319",
		"country_id": "CD",
		"longitude": "22.400017",
		"latitude": "-5.890042"
	},
	{
		"name": "Kinshasa",
		"id": "320",
		"country_id": "CD",
		"longitude": "15.314972",
		"latitude": "-4.329724"
	},
	{
		"name": "Lubumbashi",
		"id": "321",
		"country_id": "CD",
		"longitude": "27.480017",
		"latitude": "-11.680025"
	},
	{
		"name": "Mbuji Mayi",
		"id": "322",
		"country_id": "CD",
		"longitude": "NULL",
		"latitude": "NULL"
	},
	{
		"name": "Copenhagen",
		"id": "323",
		"country_id": "DK",
		"longitude": "12.563486",
		"latitude": "55.678564"
	},
	{
		"name": "Santo Domingo",
		"id": "324",
		"country_id": "CD",
		"longitude": "NULL",
		"latitude": "NULL"
	},
	{
		"name": "Guayaquil",
		"id": "325",
		"country_id": "EC",
		"longitude": "-79.920042",
		"latitude": "-2.220034"
	},
	{
		"name": "Quito",
		"id": "326",
		"country_id": "EC",
		"longitude": "-78.500051",
		"latitude": "-0.214988"
	},
	{
		"name": "Alexandria",
		"id": "327",
		"country_id": "EG",
		"longitude": "29.949996",
		"latitude": "31.200019"
	},
	{
		"name": "Cairo",
		"id": "328",
		"country_id": "EG",
		"longitude": "31.249968",
		"latitude": "30.04996"
	},
	{
		"name": "San Salvador",
		"id": "329",
		"country_id": "SV",
		"longitude": "-89.203041",
		"latitude": "13.710002"
	},
	{
		"name": "Addis Ababa",
		"id": "330",
		"country_id": "ET",
		"longitude": "38.700004",
		"latitude": "9.03331"
	},
	{
		"name": "Bordeaux",
		"id": "331",
		"country_id": "FR",
		"longitude": "-0.595013",
		"latitude": "44.850013"
	},
	{
		"name": "Lille",
		"id": "332",
		"country_id": "FR",
		"longitude": "3.080008",
		"latitude": "50.649969"
	},
	{
		"name": "Lyon",
		"id": "333",
		"country_id": "FR",
		"longitude": "4.83003",
		"latitude": "45.770009"
	},
	{
		"name": "Marseille",
		"id": "334",
		"country_id": "FR",
		"longitude": "5.37501",
		"latitude": "43.289979"
	},
	{
		"name": "Nice",
		"id": "335",
		"country_id": "FR",
		"longitude": "7.265024",
		"latitude": "43.715018"
	},
	{
		"name": "Paris",
		"id": "336",
		"country_id": "FR",
		"longitude": "2.333335",
		"latitude": "48.866693"
	},
	{
		"name": "Toulouse",
		"id": "337",
		"country_id": "FR",
		"longitude": "1.449927",
		"latitude": "43.619959"
	},
	{
		"name": "Tbilisi",
		"id": "338",
		"country_id": "GE",
		"longitude": "44.790795",
		"latitude": "41.72501"
	},
	{
		"name": "Berlin",
		"id": "339",
		"country_id": "DE",
		"longitude": "13.401549",
		"latitude": "52.521819"
	},
	{
		"name": "Hamburg",
		"id": "340",
		"country_id": "DE",
		"longitude": "9.999999",
		"latitude": "53.550025"
	},
	{
		"name": "Colonge",
		"id": "341",
		"country_id": "DE",
		"longitude": "NULL",
		"latitude": "NULL"
	},
	{
		"name": "Munich",
		"id": "342",
		"country_id": "DE",
		"longitude": "11.574993",
		"latitude": "48.129942"
	},
	{
		"name": "Accra",
		"id": "343",
		"country_id": "GH",
		"longitude": "-0.216716",
		"latitude": "5.550035"
	},
	{
		"name": "Kumasi",
		"id": "344",
		"country_id": "GH",
		"longitude": "-1.630014",
		"latitude": "6.689991"
	},
	{
		"name": "Athens",
		"id": "345",
		"country_id": "GR",
		"longitude": "23.733321",
		"latitude": "37.983326"
	},
	{
		"name": "Thessaloniki",
		"id": "346",
		"country_id": "GR",
		"longitude": "22.885001",
		"latitude": "40.696106"
	},
	{
		"name": "Guatemala City",
		"id": "347",
		"country_id": "GT",
		"longitude": "-90.526966",
		"latitude": "14.621135"
	},
	{
		"name": "Conakry",
		"id": "348",
		"country_id": "GN",
		"longitude": "-13.680235",
		"latitude": "9.531523"
	},
	{
		"name": "Port au Prince",
		"id": "349",
		"country_id": "HT",
		"longitude": "NULL",
		"latitude": "NULL"
	},
	{
		"name": "Tegucigalpa",
		"id": "350",
		"country_id": "HN",
		"longitude": "-87.217529",
		"latitude": "14.102045"
	},
	{
		"name": "Budapest",
		"id": "351",
		"country_id": "HU",
		"longitude": "19.083321",
		"latitude": "47.500006"
	},
	{
		"name": "Agra",
		"id": "352",
		"country_id": "IN",
		"longitude": "78.015021",
		"latitude": "27.17042"
	},
	{
		"name": "Ahmadabad",
		"id": "353",
		"country_id": "IN",
		"longitude": "72.580004",
		"latitude": "23.030053"
	},
	{
		"name": "Aligarh",
		"id": "354",
		"country_id": "IN",
		"longitude": "78.061788",
		"latitude": "27.892211"
	},
	{
		"name": "Allahabad",
		"id": "355",
		"country_id": "IN",
		"longitude": "81.840007",
		"latitude": "25.454995"
	},
	{
		"name": "Amritsar",
		"id": "356",
		"country_id": "IN",
		"longitude": "74.869993",
		"latitude": "31.639992"
	},
	{
		"name": "Asansol",
		"id": "357",
		"country_id": "IN",
		"longitude": "86.983333",
		"latitude": "23.683333"
	},
	{
		"name": "Aurangabad",
		"id": "358",
		"country_id": "IN",
		"longitude": "75.320301",
		"latitude": "19.895696"
	},
	{
		"name": "Bangalore",
		"id": "359",
		"country_id": "IN",
		"longitude": "77.56001",
		"latitude": "12.969995"
	},
	{
		"name": "Bareilly",
		"id": "360",
		"country_id": "IN",
		"longitude": "79.42",
		"latitude": "28.345387"
	},
	{
		"name": "Bhiwandi",
		"id": "361",
		"country_id": "IN",
		"longitude": "73.129996",
		"latitude": "19.350019"
	},
	{
		"name": "Bhopal",
		"id": "362",
		"country_id": "IN",
		"longitude": "77.409993",
		"latitude": "23.249988"
	},
	{
		"name": "Bhubaneswar",
		"id": "363",
		"country_id": "IN",
		"longitude": "85.82736",
		"latitude": "20.270428"
	},
	{
		"name": "Chandigarh",
		"id": "364",
		"country_id": "IN",
		"longitude": "76.780006",
		"latitude": "30.719997"
	},
	{
		"name": "Madras",
		"id": "365",
		"country_id": "IN",
		"longitude": "80.279999",
		"latitude": "13.089988"
	},
	{
		"name": "Coimbatore",
		"id": "366",
		"country_id": "IN",
		"longitude": "76.950021",
		"latitude": "10.99996"
	},
	{
		"name": "Delhi",
		"id": "367",
		"country_id": "IN",
		"longitude": "77.230004",
		"latitude": "28.669993"
	},
	{
		"name": "Dhanbad",
		"id": "368",
		"country_id": "IN",
		"longitude": "86.419986",
		"latitude": "23.800393"
	},
	{
		"name": "Durg Bhilainagar",
		"id": "369",
		"country_id": "IN",
		"longitude": "NULL",
		"latitude": "NULL"
	},
	{
		"name": "Faridabad",
		"id": "370",
		"country_id": "IN",
		"longitude": "77.316667",
		"latitude": "28.433333"
	},
	{
		"name": "Ghaziabad",
		"id": "371",
		"country_id": "IN",
		"longitude": "77.408391",
		"latitude": "28.660381"
	},
	{
		"name": "Gauhati",
		"id": "372",
		"country_id": "IN",
		"longitude": "NULL",
		"latitude": "NULL"
	},
	{
		"name": "Gwalior",
		"id": "373",
		"country_id": "IN",
		"longitude": "78.180075",
		"latitude": "26.229987"
	},
	{
		"name": "Hubli",
		"id": "374",
		"country_id": "IN",
		"longitude": "75.125016",
		"latitude": "15.359978"
	},
	{
		"name": "Hyderabad",
		"id": "375",
		"country_id": "IN",
		"longitude": "78.479954",
		"latitude": "17.399983"
	},
	{
		"name": "Indore",
		"id": "376",
		"country_id": "IN",
		"longitude": "75.865023",
		"latitude": "22.715059"
	},
	{
		"name": "Jabalpur",
		"id": "377",
		"country_id": "IN",
		"longitude": "79.955057",
		"latitude": "23.175057"
	},
	{
		"name": "Jaipur",
		"id": "378",
		"country_id": "IN",
		"longitude": "75.809987",
		"latitude": "26.921133"
	},
	{
		"name": "Jalandhar",
		"id": "379",
		"country_id": "IN",
		"longitude": "75.56902",
		"latitude": "31.334921"
	},
	{
		"name": "Jammu",
		"id": "380",
		"country_id": "IN",
		"longitude": "74.846739",
		"latitude": "32.711788"
	},
	{
		"name": "Jamshedpur",
		"id": "381",
		"country_id": "IN",
		"longitude": "86.197519",
		"latitude": "22.787535"
	},
	{
		"name": "Jodhpur",
		"id": "382",
		"country_id": "IN",
		"longitude": "73.016773",
		"latitude": "26.291766"
	},
	{
		"name": "Kanpur",
		"id": "383",
		"country_id": "IN",
		"longitude": "80.319996",
		"latitude": "26.459999"
	},
	{
		"name": "Cochin",
		"id": "384",
		"country_id": "IN",
		"longitude": "76.223916",
		"latitude": "10.015008"
	},
	{
		"name": "Calcutta",
		"id": "385",
		"country_id": "IN",
		"longitude": "88.324676",
		"latitude": "22.494969"
	},
	{
		"name": "Kota",
		"id": "386",
		"country_id": "IN",
		"longitude": "75.834999",
		"latitude": "25.179999"
	},
	{
		"name": "Calicut",
		"id": "387",
		"country_id": "IN",
		"longitude": "75.76999",
		"latitude": "11.250436"
	},
	{
		"name": "Lucknow",
		"id": "388",
		"country_id": "IN",
		"longitude": "80.914999",
		"latitude": "26.855039"
	},
	{
		"name": "Ludhiana",
		"id": "389",
		"country_id": "IN",
		"longitude": "75.872257",
		"latitude": "30.927762"
	},
	{
		"name": "Madurai",
		"id": "390",
		"country_id": "IN",
		"longitude": "78.120027",
		"latitude": "9.920026"
	},
	{
		"name": "Meerut",
		"id": "391",
		"country_id": "IN",
		"longitude": "77.700001",
		"latitude": "29.000412"
	},
	{
		"name": "Moradabad",
		"id": "392",
		"country_id": "IN",
		"longitude": "78.756784",
		"latitude": "28.841791"
	},
	{
		"name": "Bombay",
		"id": "393",
		"country_id": "IN",
		"longitude": "72.856989",
		"latitude": "19.01699"
	},
	{
		"name": "Mysore",
		"id": "394",
		"country_id": "IN",
		"longitude": "76.660013",
		"latitude": "12.309984"
	},
	{
		"name": "Nagpur",
		"id": "395",
		"country_id": "IN",
		"longitude": "79.089994",
		"latitude": "21.16996"
	},
	{
		"name": "Nashik",
		"id": "396",
		"country_id": "IN",
		"longitude": "73.779982",
		"latitude": "20.000419"
	},
	{
		"name": "Patna",
		"id": "397",
		"country_id": "IN",
		"longitude": "85.130039",
		"latitude": "25.624959"
	},
	{
		"name": "Poona",
		"id": "398",
		"country_id": "IN",
		"longitude": "73.850004",
		"latitude": "18.530018"
	},
	{
		"name": "Raipur",
		"id": "399",
		"country_id": "IN",
		"longitude": "81.635006",
		"latitude": "21.234995"
	},
	{
		"name": "Rajkot",
		"id": "400",
		"country_id": "IN",
		"longitude": "70.800009",
		"latitude": "22.310019"
	},
	{
		"name": "Ranchi",
		"id": "401",
		"country_id": "IN",
		"longitude": "85.330026",
		"latitude": "23.370006"
	},
	{
		"name": "Salem",
		"id": "402",
		"country_id": "IN",
		"longitude": "78.180075",
		"latitude": "11.669997"
	},
	{
		"name": "Solapur",
		"id": "403",
		"country_id": "IN",
		"longitude": "75.900008",
		"latitude": "17.670406"
	},
	{
		"name": "Srinagar",
		"id": "404",
		"country_id": "IN",
		"longitude": "74.815009",
		"latitude": "34.099972"
	},
	{
		"name": "Surat",
		"id": "405",
		"country_id": "IN",
		"longitude": "72.840039",
		"latitude": "21.199984"
	},
	{
		"name": "Thiruvananthapuram",
		"id": "406",
		"country_id": "IN",
		"longitude": "76.950021",
		"latitude": "8.499984"
	},
	{
		"name": "Tiruchirappalli",
		"id": "407",
		"country_id": "IN",
		"longitude": "78.689967",
		"latitude": "10.809998"
	},
	{
		"name": "Vadodara",
		"id": "408",
		"country_id": "IN",
		"longitude": "73.180019",
		"latitude": "22.310019"
	},
	{
		"name": "Benares",
		"id": "409",
		"country_id": "IN",
		"longitude": "83.000039",
		"latitude": "25.32999"
	},
	{
		"name": "Vijayawada",
		"id": "410",
		"country_id": "IN",
		"longitude": "80.630003",
		"latitude": "16.519959"
	},
	{
		"name": "Visakhapatnam",
		"id": "411",
		"country_id": "IN",
		"longitude": "83.304982",
		"latitude": "17.730015"
	},
	{
		"name": "Bandar Lampung",
		"id": "412",
		"country_id": "ID",
		"longitude": "105.269998",
		"latitude": "-5.430019"
	},
	{
		"name": "Bandung",
		"id": "413",
		"country_id": "ID",
		"longitude": "107.570013",
		"latitude": "-6.950029"
	},
	{
		"name": "Bogor",
		"id": "414",
		"country_id": "ID",
		"longitude": "106.750011",
		"latitude": "-6.570001"
	},
	{
		"name": "Jakarta",
		"id": "415",
		"country_id": "ID",
		"longitude": "106.829438",
		"latitude": "-6.174418"
	},
	{
		"name": "Malang",
		"id": "416",
		"country_id": "ID",
		"longitude": "112.610015",
		"latitude": "-7.979992"
	},
	{
		"name": "Medan",
		"id": "417",
		"country_id": "ID",
		"longitude": "98.65004",
		"latitude": "3.579974"
	},
	{
		"name": "Padang",
		"id": "418",
		"country_id": "ID",
		"longitude": "100.360013",
		"latitude": "-0.960007"
	},
	{
		"name": "Palembang",
		"id": "419",
		"country_id": "ID",
		"longitude": "104.75003",
		"latitude": "-2.980039"
	},
	{
		"name": "Pekan Baru",
		"id": "420",
		"country_id": "ID",
		"longitude": "NULL",
		"latitude": "NULL"
	},
	{
		"name": "Semarang",
		"id": "421",
		"country_id": "ID",
		"longitude": "110.420019",
		"latitude": "-6.966617"
	},
	{
		"name": "Surabaya",
		"id": "422",
		"country_id": "ID",
		"longitude": "112.750833",
		"latitude": "-7.249236"
	},
	{
		"name": "Ujung Pandang",
		"id": "423",
		"country_id": "ID",
		"longitude": "119.432028",
		"latitude": "-5.139959"
	},
	{
		"name": "Ahvaz",
		"id": "424",
		"country_id": "IR",
		"longitude": "48.720013",
		"latitude": "31.279989"
	},
	{
		"name": "Esfahan",
		"id": "425",
		"country_id": "IR",
		"longitude": "51.700038",
		"latitude": "32.700005"
	},
	{
		"name": "Karaj",
		"id": "426",
		"country_id": "IR",
		"longitude": "50.970005",
		"latitude": "35.800359"
	},
	{
		"name": "Kermanshah",
		"id": "427",
		"country_id": "IR",
		"longitude": "47.060011",
		"latitude": "34.380006"
	},
	{
		"name": "Mashhad",
		"id": "428",
		"country_id": "IR",
		"longitude": "59.569997",
		"latitude": "36.27002"
	},
	{
		"name": "Qom",
		"id": "429",
		"country_id": "IR",
		"longitude": "50.950006",
		"latitude": "34.650015"
	},
	{
		"name": "Shiraz",
		"id": "430",
		"country_id": "IR",
		"longitude": "52.570011",
		"latitude": "29.62996"
	},
	{
		"name": "Tabriz",
		"id": "431",
		"country_id": "IR",
		"longitude": "46.301246",
		"latitude": "38.086292"
	},
	{
		"name": "Tehran",
		"id": "432",
		"country_id": "IR",
		"longitude": "51.424344",
		"latitude": "35.671943"
	},
	{
		"name": "Basra",
		"id": "433",
		"country_id": "IQ",
		"longitude": "47.813557",
		"latitude": "30.513524"
	},
	{
		"name": "Mosul",
		"id": "434",
		"country_id": "IQ",
		"longitude": "43.145004",
		"latitude": "36.345002"
	},
	{
		"name": "Baghdad",
		"id": "435",
		"country_id": "IQ",
		"longitude": "44.393869",
		"latitude": "33.338648"
	},
	{
		"name": "Erbil",
		"id": "436",
		"country_id": "IQ",
		"longitude": "NULL",
		"latitude": "NULL"
	},
	{
		"name": "Dublin",
		"id": "437",
		"country_id": "IE",
		"longitude": "-6.248906",
		"latitude": "53.333061"
	},
	{
		"name": "Haifa",
		"id": "438",
		"country_id": "IL",
		"longitude": "34.980025",
		"latitude": "32.820411"
	},
	{
		"name": "Tel Aviv",
		"id": "439",
		"country_id": "IL",
		"longitude": "NULL",
		"latitude": "NULL"
	},
	{
		"name": "Milan",
		"id": "440",
		"country_id": "IT",
		"longitude": "9.205009",
		"latitude": "45.469975"
	},
	{
		"name": "Napels",
		"id": "441",
		"country_id": "IT",
		"longitude": "NULL",
		"latitude": "NULL"
	},
	{
		"name": "Palermo",
		"id": "442",
		"country_id": "IT",
		"longitude": "13.350027",
		"latitude": "38.125023"
	},
	{
		"name": "Rome",
		"id": "443",
		"country_id": "IT",
		"longitude": "12.483258",
		"latitude": "41.895956"
	},
	{
		"name": "Turin",
		"id": "444",
		"country_id": "IT",
		"longitude": "7.66996",
		"latitude": "45.070387"
	},
	{
		"name": "Kitakyushu",
		"id": "445",
		"country_id": "JP",
		"longitude": "130.820015",
		"latitude": "33.870399"
	},
	{
		"name": "Hiroshima",
		"id": "446",
		"country_id": "JP",
		"longitude": "132.442913",
		"latitude": "34.387835"
	},
	{
		"name": "Kyoto",
		"id": "447",
		"country_id": "JP",
		"longitude": "135.749998",
		"latitude": "35.029992"
	},
	{
		"name": "Nagoya",
		"id": "448",
		"country_id": "JP",
		"longitude": "136.914991",
		"latitude": "35.154998"
	},
	{
		"name": "Kobe",
		"id": "449",
		"country_id": "JP",
		"longitude": "135.169982",
		"latitude": "34.679988"
	},
	{
		"name": "Sapporo",
		"id": "450",
		"country_id": "JP",
		"longitude": "141.340044",
		"latitude": "43.074979"
	},
	{
		"name": "Sendai",
		"id": "451",
		"country_id": "JP",
		"longitude": "141.021717",
		"latitude": "38.287106"
	},
	{
		"name": "Tokyo",
		"id": "452",
		"country_id": "JP",
		"longitude": "139.751407",
		"latitude": "35.685017"
	},
	{
		"name": "Amman",
		"id": "453",
		"country_id": "JO",
		"longitude": "35.9333",
		"latitude": "31.950025"
	},
	{
		"name": "Almaty",
		"id": "454",
		"country_id": "KZ",
		"longitude": "76.915036",
		"latitude": "43.32499"
	},
	{
		"name": "Mombasa",
		"id": "455",
		"country_id": "KE",
		"longitude": "39.689918",
		"latitude": "-4.040026"
	},
	{
		"name": "Nairobi",
		"id": "456",
		"country_id": "KE",
		"longitude": "36.816657",
		"latitude": "-1.283347"
	},
	{
		"name": "Kuwait City",
		"id": "457",
		"country_id": "KW",
		"longitude": "NULL",
		"latitude": "NULL"
	},
	{
		"name": "Bishkek",
		"id": "458",
		"country_id": "KG",
		"longitude": "74.585204",
		"latitude": "42.873079"
	},
	{
		"name": "Beirut",
		"id": "459",
		"country_id": "LB",
		"longitude": "35.509708",
		"latitude": "33.871975"
	},
	{
		"name": "Monrovia",
		"id": "460",
		"country_id": "LR",
		"longitude": "-10.804752",
		"latitude": "6.310557"
	},
	{
		"name": "Banghazi",
		"id": "461",
		"country_id": "LY",
		"longitude": "20.066723",
		"latitude": "32.116733"
	},
	{
		"name": "Tripoli",
		"id": "462",
		"country_id": "LY",
		"longitude": "13.180012",
		"latitude": "32.8925"
	},
	{
		"name": "Antananarivo",
		"id": "463",
		"country_id": "MG",
		"longitude": "47.516624",
		"latitude": "-18.916637"
	},
	{
		"name": "Johore Bharu",
		"id": "464",
		"country_id": "MY",
		"longitude": "NULL",
		"latitude": "NULL"
	},
	{
		"name": "Klang",
		"id": "465",
		"country_id": "MY",
		"longitude": "101.550018",
		"latitude": "3.02037"
	},
	{
		"name": "Kuala Lumpur",
		"id": "466",
		"country_id": "MY",
		"longitude": "101.699983",
		"latitude": "3.166666"
	},
	{
		"name": "Bamako",
		"id": "467",
		"country_id": "ML",
		"longitude": "-8.000039",
		"latitude": "12.650015"
	},
	{
		"name": "Aguascalientes",
		"id": "468",
		"country_id": "MX",
		"longitude": "-102.290413",
		"latitude": "21.87946"
	},
	{
		"name": "Chihuahua",
		"id": "469",
		"country_id": "MX",
		"longitude": "-106.084982",
		"latitude": "28.644982"
	},
	{
		"name": "Mexico City",
		"id": "470",
		"country_id": "MX",
		"longitude": "-99.130988",
		"latitude": "19.442442"
	},
	{
		"name": "Ciudad Juarez",
		"id": "471",
		"country_id": "MX",
		"longitude": "-106.490048",
		"latitude": "31.690377"
	},
	{
		"name": "Culiacan",
		"id": "472",
		"country_id": "MX",
		"longitude": "-107.379968",
		"latitude": "24.829995"
	},
	{
		"name": "Guadalajara",
		"id": "473",
		"country_id": "MX",
		"longitude": "-103.330034",
		"latitude": "20.670016"
	},
	{
		"name": "Leon de los Aldamas",
		"id": "474",
		"country_id": "MX",
		"longitude": "NULL",
		"latitude": "NULL"
	},
	{
		"name": "Mzrida",
		"id": "475",
		"country_id": "MX",
		"longitude": "NULL",
		"latitude": "NULL"
	},
	{
		"name": "Mexicali",
		"id": "476",
		"country_id": "MX",
		"longitude": "-115.480016",
		"latitude": "32.649983"
	},
	{
		"name": "Monterrey",
		"id": "477",
		"country_id": "MX",
		"longitude": "-100.329985",
		"latitude": "25.669995"
	},
	{
		"name": "Puebla",
		"id": "478",
		"country_id": "MX",
		"longitude": "-98.200037",
		"latitude": "19.04996"
	},
	{
		"name": "QuerZtaro",
		"id": "479",
		"country_id": "MX",
		"longitude": "NULL",
		"latitude": "NULL"
	},
	{
		"name": "Saltillo",
		"id": "480",
		"country_id": "MX",
		"longitude": "-101.004982",
		"latitude": "25.419959"
	},
	{
		"name": "San Luis Potosi",
		"id": "481",
		"country_id": "MX",
		"longitude": "-100.999996",
		"latitude": "22.169976"
	},
	{
		"name": "Tijuana",
		"id": "482",
		"country_id": "MX",
		"longitude": "-117.079996",
		"latitude": "32.500018"
	},
	{
		"name": "Toluca de Lerdo",
		"id": "483",
		"country_id": "MX",
		"longitude": "-99.669999",
		"latitude": "19.330382"
	},
	{
		"name": "Mexico City",
		"id": "484",
		"country_id": "MX",
		"longitude": "-99.130988",
		"latitude": "19.442442"
	},
	{
		"name": "Ulaanbaatar",
		"id": "485",
		"country_id": "MN",
		"longitude": "106.916616",
		"latitude": "47.916673"
	},
	{
		"name": "Casablanca",
		"id": "486",
		"country_id": "MA",
		"longitude": "-7.616367",
		"latitude": "33.599976"
	},
	{
		"name": "Other cities/towns",
		"id": "487",
		"country_id": "AO",
		"longitude": "NULL",
		"latitude": "NULL"
	},
	{
		"name": "Djougou",
		"id": "488",
		"country_id": "BJ",
		"longitude": "1.680042",
		"latitude": "9.700427"
	},
	{
		"name": "Porto Novo",
		"id": "489",
		"country_id": "BJ",
		"longitude": "NULL",
		"latitude": "NULL"
	},
	{
		"name": "Other cities/towns",
		"id": "490",
		"country_id": "BJ",
		"longitude": "NULL",
		"latitude": "NULL"
	},
	{
		"name": "Autres villes",
		"id": "491",
		"country_id": "BF",
		"longitude": "NULL",
		"latitude": "NULL"
	},
	{
		"name": "Other cities/towns",
		"id": "492",
		"country_id": "BF",
		"longitude": "NULL",
		"latitude": "NULL"
	},
	{
		"name": "Bunjumbura",
		"id": "493",
		"country_id": "BI",
		"longitude": "NULL",
		"latitude": "NULL"
	},
	{
		"name": "Gitega",
		"id": "494",
		"country_id": "BI",
		"longitude": "29.843594",
		"latitude": "-3.426007"
	},
	{
		"name": "Ngozi",
		"id": "495",
		"country_id": "BI",
		"longitude": "29.825002",
		"latitude": "-2.912004"
	},
	{
		"name": "Other cities",
		"id": "496",
		"country_id": "BI",
		"longitude": "NULL",
		"latitude": "NULL"
	},
	{
		"name": "Younde",
		"id": "497",
		"country_id": "CM",
		"longitude": "NULL",
		"latitude": "NULL"
	},
	{
		"name": "Other cities/towns",
		"id": "498",
		"country_id": "CM",
		"longitude": "NULL",
		"latitude": "NULL"
	},
	{
		"name": "Yaounde",
		"id": "499",
		"country_id": "CM",
		"longitude": "11.516651",
		"latitude": "3.866701"
	},
	{
		"name": "Other cities",
		"id": "500",
		"country_id": "CM",
		"longitude": "NULL",
		"latitude": "NULL"
	},
	{
		"name": "Ndjamena",
		"id": "501",
		"country_id": "TD",
		"longitude": "15.049148",
		"latitude": "12.113097"
	},
	{
		"name": "Other cities/towns",
		"id": "502",
		"country_id": "TD",
		"longitude": "NULL",
		"latitude": "NULL"
	},
	{
		"name": "Moroni",
		"id": "503",
		"country_id": "KM",
		"longitude": "43.240244",
		"latitude": "-11.704158"
	},
	{
		"name": "Other cities/towns",
		"id": "504",
		"country_id": "KM",
		"longitude": "NULL",
		"latitude": "NULL"
	},
	{
		"name": "Brazaville",
		"id": "505",
		"country_id": "CD",
		"longitude": "NULL",
		"latitude": "NULL"
	},
	{
		"name": "Other cities/towns",
		"id": "506",
		"country_id": "CD",
		"longitude": "NULL",
		"latitude": "NULL"
	},
	{
		"name": "Other cities/towns",
		"id": "507",
		"country_id": "CI",
		"longitude": "NULL",
		"latitude": "NULL"
	},
	{
		"name": "Havana",
		"id": "508",
		"country_id": "CU",
		"longitude": "-82.364182",
		"latitude": "23.131959"
	},
	{
		"name": "Other cities",
		"id": "509",
		"country_id": "CU",
		"longitude": "NULL",
		"latitude": "NULL"
	},
	{
		"name": "Cairo",
		"id": "510",
		"country_id": "EG",
		"longitude": "31.249968",
		"latitude": "30.04996"
	},
	{
		"name": "Alexandria",
		"id": "511",
		"country_id": "EG",
		"longitude": "29.949996",
		"latitude": "31.200019"
	},
	{
		"name": "Port Said",
		"id": "512",
		"country_id": "EG",
		"longitude": "32.290008",
		"latitude": "31.25999"
	},
	{
		"name": "Suez",
		"id": "513",
		"country_id": "EG",
		"longitude": "32.549941",
		"latitude": "30.004976"
	},
	{
		"name": "Assiut",
		"id": "514",
		"country_id": "EG",
		"longitude": "NULL",
		"latitude": "NULL"
	},
	{
		"name": "Aswan",
		"id": "515",
		"country_id": "EG",
		"longitude": "32.898911",
		"latitude": "24.087508"
	},
	{
		"name": "Beni Suef",
		"id": "516",
		"country_id": "EG",
		"longitude": "31.09003",
		"latitude": "29.080381"
	},
	{
		"name": "Damietta",
		"id": "517",
		"country_id": "EG",
		"longitude": "NULL",
		"latitude": "NULL"
	},
	{
		"name": "Mansurah",
		"id": "518",
		"country_id": "EG",
		"longitude": "NULL",
		"latitude": "NULL"
	},
	{
		"name": "Kafr El Sheikh",
		"id": "519",
		"country_id": "EG",
		"longitude": "NULL",
		"latitude": "NULL"
	},
	{
		"name": "Tahta",
		"id": "520",
		"country_id": "EG",
		"longitude": "NULL",
		"latitude": "NULL"
	},
	{
		"name": "Damanhur",
		"id": "521",
		"country_id": "EG",
		"longitude": "30.470016",
		"latitude": "31.050442"
	},
	{
		"name": "Ismailia",
		"id": "522",
		"country_id": "EG",
		"longitude": "32.259984",
		"latitude": "30.590341"
	},
	{
		"name": "Giza",
		"id": "523",
		"country_id": "EG",
		"longitude": "NULL",
		"latitude": "NULL"
	},
	{
		"name": "Fayoum",
		"id": "524",
		"country_id": "EG",
		"longitude": "NULL",
		"latitude": "NULL"
	},
	{
		"name": "Sawhaj",
		"id": "525",
		"country_id": "EG",
		"longitude": "NULL",
		"latitude": "NULL"
	},
	{
		"name": "Qena",
		"id": "526",
		"country_id": "EG",
		"longitude": "32.720008",
		"latitude": "26.150457"
	},
	{
		"name": "Other cities/towns",
		"id": "527",
		"country_id": "EG",
		"longitude": "NULL",
		"latitude": "NULL"
	},
	{
		"name": "Ghurdqah",
		"id": "528",
		"country_id": "EG",
		"longitude": "NULL",
		"latitude": "NULL"
	},
	{
		"name": "Kharijah",
		"id": "529",
		"country_id": "EG",
		"longitude": "NULL",
		"latitude": "NULL"
	},
	{
		"name": "Nazret",
		"id": "530",
		"country_id": "ET",
		"longitude": "39.269995",
		"latitude": "8.549981"
	},
	{
		"name": "Other cities/towns",
		"id": "531",
		"country_id": "ET",
		"longitude": "NULL",
		"latitude": "NULL"
	},
	{
		"name": "Libreville",
		"id": "532",
		"country_id": "GA",
		"longitude": "9.457965",
		"latitude": "0.385389"
	},
	{
		"name": "Other cities/towns",
		"id": "533",
		"country_id": "GA",
		"longitude": "NULL",
		"latitude": "NULL"
	},
	{
		"name": "Banjul",
		"id": "534",
		"country_id": "GM",
		"longitude": "-16.591701",
		"latitude": "13.453876"
	},
	{
		"name": "Other cities",
		"id": "535",
		"country_id": "GM",
		"longitude": "NULL",
		"latitude": "NULL"
	},
	{
		"name": "Other cities",
		"id": "536",
		"country_id": "GE",
		"longitude": "NULL",
		"latitude": "NULL"
	},
	{
		"name": "Other cities/towns",
		"id": "537",
		"country_id": "GH",
		"longitude": "NULL",
		"latitude": "NULL"
	},
	{
		"name": "Other cities",
		"id": "538",
		"country_id": "GH",
		"longitude": "NULL",
		"latitude": "NULL"
	},
	{
		"name": "Other cities/towns",
		"id": "539",
		"country_id": "GN",
		"longitude": "NULL",
		"latitude": "NULL"
	},
	{
		"name": "Other cities/towns",
		"id": "540",
		"country_id": "KE",
		"longitude": "NULL",
		"latitude": "NULL"
	},
	{
		"name": "Maseru",
		"id": "541",
		"country_id": "LS",
		"longitude": "27.483273",
		"latitude": "-29.316674"
	},
	{
		"name": "Other cities/towns",
		"id": "542",
		"country_id": "LS",
		"longitude": "NULL",
		"latitude": "NULL"
	},
	{
		"name": "Other cities/towns",
		"id": "543",
		"country_id": "LR",
		"longitude": "NULL",
		"latitude": "NULL"
	},
	{
		"name": "Other cities/towns",
		"id": "544",
		"country_id": "MG",
		"longitude": "NULL",
		"latitude": "NULL"
	},
	{
		"name": "Lilongwe",
		"id": "545",
		"country_id": "MW",
		"longitude": "33.783302",
		"latitude": "-13.983295"
	},
	{
		"name": "Other cities/towns",
		"id": "546",
		"country_id": "MW",
		"longitude": "NULL",
		"latitude": "NULL"
	},
	{
		"name": "Blantyre",
		"id": "547",
		"country_id": "MW",
		"longitude": "34.989947",
		"latitude": "-15.790006"
	},
	{
		"name": "Mzuzu",
		"id": "548",
		"country_id": "MW",
		"longitude": "34.01998",
		"latitude": "-11.459987"
	},
	{
		"name": "Other cities",
		"id": "549",
		"country_id": "MW",
		"longitude": "NULL",
		"latitude": "NULL"
	},
	{
		"name": "Other cities/towns",
		"id": "550",
		"country_id": "ML",
		"longitude": "NULL",
		"latitude": "NULL"
	},
	{
		"name": "Nouakchott",
		"id": "551",
		"country_id": "MR",
		"longitude": "-15.97534",
		"latitude": "18.086427"
	},
	{
		"name": "Other cities/towns",
		"id": "552",
		"country_id": "MR",
		"longitude": "NULL",
		"latitude": "NULL"
	},
	{
		"name": "Other cities",
		"id": "553",
		"country_id": "MR",
		"longitude": "NULL",
		"latitude": "NULL"
	},
	{
		"name": "Casablanca",
		"id": "554",
		"country_id": "MA",
		"longitude": "-7.616367",
		"latitude": "33.599976"
	},
	{
		"name": "Rabat",
		"id": "555",
		"country_id": "MA",
		"longitude": "-6.836131",
		"latitude": "34.025299"
	},
	{
		"name": "Fes",
		"id": "556",
		"country_id": "MA",
		"longitude": "NULL",
		"latitude": "NULL"
	},
	{
		"name": "Marrakech",
		"id": "557",
		"country_id": "MA",
		"longitude": "-7.999987",
		"latitude": "31.629993"
	},
	{
		"name": "Tangier",
		"id": "558",
		"country_id": "MA",
		"longitude": "-5.832704",
		"latitude": "35.747287"
	},
	{
		"name": "Maknes",
		"id": "559",
		"country_id": "MA",
		"longitude": "NULL",
		"latitude": "NULL"
	},
	{
		"name": "Other cities/towns",
		"id": "560",
		"country_id": "MA",
		"longitude": "NULL",
		"latitude": "NULL"
	},
	{
		"name": "Maputo",
		"id": "561",
		"country_id": "MZ",
		"longitude": "32.589163",
		"latitude": "-25.955277"
	},
	{
		"name": "Other cities/towns",
		"id": "562",
		"country_id": "MZ",
		"longitude": "NULL",
		"latitude": "NULL"
	},
	{
		"name": "Windhoek",
		"id": "563",
		"country_id": "NA",
		"longitude": "17.083546",
		"latitude": "-22.570006"
	},
	{
		"name": "Other cities/towns",
		"id": "564",
		"country_id": "NA",
		"longitude": "NULL",
		"latitude": "NULL"
	},
	{
		"name": "Windhoek",
		"id": "565",
		"country_id": "NA",
		"longitude": "17.083546",
		"latitude": "-22.570006"
	},
	{
		"name": "Niamey",
		"id": "566",
		"country_id": "NE",
		"longitude": "2.116656",
		"latitude": "13.516706"
	},
	{
		"name": "Other cities/towns",
		"id": "567",
		"country_id": "NE",
		"longitude": "NULL",
		"latitude": "NULL"
	},
	{
		"name": "Lagos",
		"id": "568",
		"country_id": "NG",
		"longitude": "3.391531",
		"latitude": "6.443262"
	},
	{
		"name": "Ibadan",
		"id": "569",
		"country_id": "NG",
		"longitude": "3.929982",
		"latitude": "7.380026"
	},
	{
		"name": "Ogbomosho",
		"id": "570",
		"country_id": "NG",
		"longitude": "4.239989",
		"latitude": "8.130006"
	},
	{
		"name": "Zaria",
		"id": "571",
		"country_id": "NG",
		"longitude": "7.71001",
		"latitude": "11.079981"
	},
	{
		"name": "Akure",
		"id": "572",
		"country_id": "NG",
		"longitude": "5.199982",
		"latitude": "7.250396"
	},
	{
		"name": "Oyo",
		"id": "573",
		"country_id": "NG",
		"longitude": "3.929982",
		"latitude": "7.850437"
	},
	{
		"name": "Effon",
		"id": "574",
		"country_id": "NG",
		"longitude": "NULL",
		"latitude": "NULL"
	},
	{
		"name": "Damaturu",
		"id": "575",
		"country_id": "NG",
		"longitude": "11.966005",
		"latitude": "11.748996"
	},
	{
		"name": "Owo",
		"id": "576",
		"country_id": "NG",
		"longitude": "5.589984",
		"latitude": "7.200399"
	},
	{
		"name": "Kano",
		"id": "577",
		"country_id": "NG",
		"longitude": "8.520038",
		"latitude": "11.999977"
	},
	{
		"name": "Abuja",
		"id": "578",
		"country_id": "NG",
		"longitude": "7.533328",
		"latitude": "9.083333"
	},
	{
		"name": "Other cities/towns",
		"id": "579",
		"country_id": "NG",
		"longitude": "NULL",
		"latitude": "NULL"
	},
	{
		"name": "kigali",
		"id": "580",
		"country_id": "RW",
		"longitude": "NULL",
		"latitude": "NULL"
	},
	{
		"name": "Other cities/towns",
		"id": "581",
		"country_id": "RW",
		"longitude": "NULL",
		"latitude": "NULL"
	},
	{
		"name": "Dakar",
		"id": "582",
		"country_id": "SN",
		"longitude": "-17.47313",
		"latitude": "14.715832"
	},
	{
		"name": "Other cities/towns",
		"id": "583",
		"country_id": "SN",
		"longitude": "NULL",
		"latitude": "NULL"
	},
	{
		"name": "Freetown",
		"id": "584",
		"country_id": "SL",
		"longitude": "-13.234216",
		"latitude": "8.470011"
	},
	{
		"name": "Other cities",
		"id": "585",
		"country_id": "SL",
		"longitude": "NULL",
		"latitude": "NULL"
	},
	{
		"name": "CapeTown",
		"id": "586",
		"country_id": "ZA",
		"longitude": "NULL",
		"latitude": "NULL"
	},
	{
		"name": "Durban",
		"id": "587",
		"country_id": "ZA",
		"longitude": "30.980011",
		"latitude": "-29.865013"
	},
	{
		"name": "Pretoria",
		"id": "588",
		"country_id": "ZA",
		"longitude": "28.229429",
		"latitude": "-25.706921"
	},
	{
		"name": "Port Elizabeth",
		"id": "589",
		"country_id": "ZA",
		"longitude": "25.600029",
		"latitude": "-33.970034"
	},
	{
		"name": "West Rand",
		"id": "590",
		"country_id": "ZA",
		"longitude": "NULL",
		"latitude": "NULL"
	},
	{
		"name": "Other cities/towns",
		"id": "591",
		"country_id": "ZA",
		"longitude": "NULL",
		"latitude": "NULL"
	},
	{
		"name": "Mbabane",
		"id": "592",
		"country_id": "SZ",
		"longitude": "31.133335",
		"latitude": "-26.316651"
	},
	{
		"name": "Manzini",
		"id": "593",
		"country_id": "SZ",
		"longitude": "31.388004",
		"latitude": "-26.495001"
	},
	{
		"name": "Other cities/towns",
		"id": "594",
		"country_id": "SZ",
		"longitude": "NULL",
		"latitude": "NULL"
	},
	{
		"name": "Dar es Salaam",
		"id": "595",
		"country_id": "TZ",
		"longitude": "39.268342",
		"latitude": "-6.800013"
	},
	{
		"name": "Arusha",
		"id": "596",
		"country_id": "TZ",
		"longitude": "36.669999",
		"latitude": "-3.360016"
	},
	{
		"name": "Other cities/towns",
		"id": "597",
		"country_id": "TZ",
		"longitude": "NULL",
		"latitude": "NULL"
	},
	{
		"name": "Lome",
		"id": "598",
		"country_id": "TG",
		"longitude": "1.222757",
		"latitude": "6.131937"
	},
	{
		"name": "Other cities/towns",
		"id": "599",
		"country_id": "TG",
		"longitude": "NULL",
		"latitude": "NULL"
	},
	{
		"name": "Sokode",
		"id": "600",
		"country_id": "TG",
		"longitude": "1.149997",
		"latitude": "8.990471"
	},
	{
		"name": "Kara",
		"id": "601",
		"country_id": "TG",
		"longitude": "NULL",
		"latitude": "NULL"
	},
	{
		"name": "Other cities",
		"id": "602",
		"country_id": "TG",
		"longitude": "NULL",
		"latitude": "NULL"
	},
	{
		"name": "Kampala",
		"id": "603",
		"country_id": "UG",
		"longitude": "32.583324",
		"latitude": "0.316659"
	},
	{
		"name": "Other cities/towns",
		"id": "604",
		"country_id": "UG",
		"longitude": "NULL",
		"latitude": "NULL"
	},
	{
		"name": "Ndola",
		"id": "605",
		"country_id": "ZM",
		"longitude": "28.650024",
		"latitude": "-12.999944"
	},
	{
		"name": "Chingola",
		"id": "606",
		"country_id": "ZM",
		"longitude": "27.850021",
		"latitude": "-12.539611"
	},
	{
		"name": "Lusaka",
		"id": "607",
		"country_id": "ZM",
		"longitude": "28.283328",
		"latitude": "-15.416644"
	},
	{
		"name": "Other cities/towns",
		"id": "608",
		"country_id": "ZM",
		"longitude": "NULL",
		"latitude": "NULL"
	},
	{
		"name": "Harare",
		"id": "609",
		"country_id": "ZW",
		"longitude": "31.044709",
		"latitude": "-17.81779"
	},
	{
		"name": "Other cities/towns",
		"id": "610",
		"country_id": "ZW",
		"longitude": "NULL",
		"latitude": "NULL"
	},
	{
		"name": "Corazol",
		"id": "611",
		"country_id": "BZ",
		"longitude": "NULL",
		"latitude": "NULL"
	},
	{
		"name": "Orange walk",
		"id": "612",
		"country_id": "BZ",
		"longitude": "NULL",
		"latitude": "NULL"
	},
	{
		"name": "belize",
		"id": "613",
		"country_id": "BZ",
		"longitude": "NULL",
		"latitude": "NULL"
	},
	{
		"name": "San Ignacio",
		"id": "614",
		"country_id": "BZ",
		"longitude": "NULL",
		"latitude": "NULL"
	},
	{
		"name": "Punta Gorda",
		"id": "615",
		"country_id": "BZ",
		"longitude": "-88.810016",
		"latitude": "16.100347"
	},
	{
		"name": "Other cities",
		"id": "616",
		"country_id": "BZ",
		"longitude": "NULL",
		"latitude": "NULL"
	},
	{
		"name": "Sucre",
		"id": "617",
		"country_id": "BO",
		"longitude": "-65.259516",
		"latitude": "-19.040971"
	},
	{
		"name": "Cochabamba",
		"id": "618",
		"country_id": "BO",
		"longitude": "-66.169977",
		"latitude": "-17.410011"
	},
	{
		"name": "Oruro",
		"id": "619",
		"country_id": "BO",
		"longitude": "-67.129996",
		"latitude": "-17.97995"
	},
	{
		"name": "Potosi",
		"id": "620",
		"country_id": "BO",
		"longitude": "-65.750028",
		"latitude": "-19.569569"
	},
	{
		"name": "Tarija",
		"id": "621",
		"country_id": "BO",
		"longitude": "-64.749986",
		"latitude": "-21.516685"
	},
	{
		"name": "Trinidad",
		"id": "622",
		"country_id": "BO",
		"longitude": "-64.899977",
		"latitude": "-14.833372"
	},
	{
		"name": "Cobija",
		"id": "623",
		"country_id": "BO",
		"longitude": "-68.733309",
		"latitude": "-11.033346"
	},
	{
		"name": "Windhoek",
		"id": "624",
		"country_id": "BR",
		"longitude": "NULL",
		"latitude": "NULL"
	},
	{
		"name": "Other cities/towns",
		"id": "625",
		"country_id": "BR",
		"longitude": "NULL",
		"latitude": "NULL"
	},
	{
		"name": "Sao Paulo",
		"id": "626",
		"country_id": "BR",
		"longitude": "-46.62502",
		"latitude": "-23.55868"
	},
	{
		"name": "Brasilia",
		"id": "627",
		"country_id": "BR",
		"longitude": "-47.916052",
		"latitude": "-15.78334"
	},
	{
		"name": "Goiana",
		"id": "628",
		"country_id": "BR",
		"longitude": "-34.999993",
		"latitude": "-7.559604"
	},
	{
		"name": "Victoria",
		"id": "629",
		"country_id": "BR",
		"longitude": "NULL",
		"latitude": "NULL"
	},
	{
		"name": "Bogota",
		"id": "630",
		"country_id": "CO",
		"longitude": "-74.083344",
		"latitude": "4.596424"
	},
	{
		"name": "Neiva",
		"id": "631",
		"country_id": "CO",
		"longitude": "-75.330245",
		"latitude": "2.931047"
	},
	{
		"name": "Valledupar",
		"id": "632",
		"country_id": "CO",
		"longitude": "-73.25001",
		"latitude": "10.479992"
	},
	{
		"name": "Medellin",
		"id": "633",
		"country_id": "CO",
		"longitude": "-75.57501",
		"latitude": "6.275003"
	},
	{
		"name": "Tunja",
		"id": "634",
		"country_id": "CO",
		"longitude": "-73.370028",
		"latitude": "5.550448"
	},
	{
		"name": "Manizales",
		"id": "635",
		"country_id": "CO",
		"longitude": "-75.52",
		"latitude": "5.059987"
	},
	{
		"name": "Popayan",
		"id": "636",
		"country_id": "CO",
		"longitude": "-76.610011",
		"latitude": "2.419993"
	},
	{
		"name": "Monteria",
		"id": "637",
		"country_id": "CO",
		"longitude": "-75.890004",
		"latitude": "8.757539"
	},
	{
		"name": "Quibdo",
		"id": "638",
		"country_id": "CO",
		"longitude": "-76.660008",
		"latitude": "5.690414"
	},
	{
		"name": "Riohacha",
		"id": "639",
		"country_id": "CO",
		"longitude": "-72.909979",
		"latitude": "11.540341"
	},
	{
		"name": "Santa Marta",
		"id": "640",
		"country_id": "CO",
		"longitude": "-74.201657",
		"latitude": "11.247206"
	},
	{
		"name": "Villavicencio",
		"id": "641",
		"country_id": "CO",
		"longitude": "-73.634999",
		"latitude": "4.153324"
	},
	{
		"name": "Cucuta",
		"id": "642",
		"country_id": "CO",
		"longitude": "-72.519977",
		"latitude": "7.920019"
	},
	{
		"name": "Armenia",
		"id": "643",
		"country_id": "CO",
		"longitude": "-75.681128",
		"latitude": "4.534283"
	},
	{
		"name": "Pereira",
		"id": "644",
		"country_id": "CO",
		"longitude": "-75.679991",
		"latitude": "4.81039"
	},
	{
		"name": "Sincelenjo",
		"id": "645",
		"country_id": "CO",
		"longitude": "NULL",
		"latitude": "NULL"
	},
	{
		"name": "Ibague",
		"id": "646",
		"country_id": "CO",
		"longitude": "-75.232214",
		"latitude": "4.438914"
	},
	{
		"name": "Other cities/towns",
		"id": "647",
		"country_id": "CO",
		"longitude": "NULL",
		"latitude": "NULL"
	},
	{
		"name": "Florencia",
		"id": "648",
		"country_id": "CO",
		"longitude": "-75.619994",
		"latitude": "1.610404"
	},
	{
		"name": "Arauca",
		"id": "649",
		"country_id": "CO",
		"longitude": "-70.761635",
		"latitude": "7.090664"
	},
	{
		"name": "Yopali",
		"id": "650",
		"country_id": "CO",
		"longitude": "NULL",
		"latitude": "NULL"
	},
	{
		"name": "Mocoa",
		"id": "651",
		"country_id": "CO",
		"longitude": "-76.629984",
		"latitude": "1.149993"
	},
	{
		"name": "San Anderes",
		"id": "652",
		"country_id": "CO",
		"longitude": "NULL",
		"latitude": "NULL"
	},
	{
		"name": "Leticia",
		"id": "653",
		"country_id": "CO",
		"longitude": "-69.939979",
		"latitude": "-4.220015"
	},
	{
		"name": "Puerto Inirida",
		"id": "654",
		"country_id": "CO",
		"longitude": "-67.906098",
		"latitude": "3.85404"
	},
	{
		"name": "San Jose de Guaviare",
		"id": "655",
		"country_id": "CO",
		"longitude": "NULL",
		"latitude": "NULL"
	},
	{
		"name": "Mitu",
		"id": "656",
		"country_id": "CO",
		"longitude": "-70.173608",
		"latitude": "1.198311"
	},
	{
		"name": "Puerto Carreno",
		"id": "657",
		"country_id": "CO",
		"longitude": "-67.493023",
		"latitude": "6.185035"
	},
	{
		"name": "Azua",
		"id": "658",
		"country_id": "CD",
		"longitude": "NULL",
		"latitude": "NULL"
	},
	{
		"name": "Neiba",
		"id": "659",
		"country_id": "CD",
		"longitude": "NULL",
		"latitude": "NULL"
	},
	{
		"name": "Barahona",
		"id": "660",
		"country_id": "CD",
		"longitude": "NULL",
		"latitude": "NULL"
	},
	{
		"name": "Dajabon",
		"id": "661",
		"country_id": "CD",
		"longitude": "NULL",
		"latitude": "NULL"
	},
	{
		"name": "San Francisco de Macoris",
		"id": "662",
		"country_id": "CD",
		"longitude": "NULL",
		"latitude": "NULL"
	},
	{
		"name": "Comendador",
		"id": "663",
		"country_id": "CD",
		"longitude": "NULL",
		"latitude": "NULL"
	},
	{
		"name": "El Seibo",
		"id": "664",
		"country_id": "CD",
		"longitude": "NULL",
		"latitude": "NULL"
	},
	{
		"name": "Moca",
		"id": "665",
		"country_id": "CD",
		"longitude": "NULL",
		"latitude": "NULL"
	},
	{
		"name": "Jimani",
		"id": "666",
		"country_id": "CD",
		"longitude": "NULL",
		"latitude": "NULL"
	},
	{
		"name": "Higuey",
		"id": "667",
		"country_id": "CD",
		"longitude": "NULL",
		"latitude": "NULL"
	},
	{
		"name": "La Romana",
		"id": "668",
		"country_id": "CD",
		"longitude": "NULL",
		"latitude": "NULL"
	},
	{
		"name": "La Vega",
		"id": "669",
		"country_id": "CD",
		"longitude": "NULL",
		"latitude": "NULL"
	},
	{
		"name": "Nagua",
		"id": "670",
		"country_id": "CD",
		"longitude": "NULL",
		"latitude": "NULL"
	},
	{
		"name": "Monte Cristi",
		"id": "671",
		"country_id": "CD",
		"longitude": "NULL",
		"latitude": "NULL"
	},
	{
		"name": "Pedernales",
		"id": "672",
		"country_id": "CD",
		"longitude": "NULL",
		"latitude": "NULL"
	},
	{
		"name": "Bani",
		"id": "673",
		"country_id": "CD",
		"longitude": "NULL",
		"latitude": "NULL"
	},
	{
		"name": "Puerto Plata",
		"id": "674",
		"country_id": "CD",
		"longitude": "NULL",
		"latitude": "NULL"
	},
	{
		"name": "Salcedo",
		"id": "675",
		"country_id": "CD",
		"longitude": "NULL",
		"latitude": "NULL"
	},
	{
		"name": "Samana",
		"id": "676",
		"country_id": "CD",
		"longitude": "NULL",
		"latitude": "NULL"
	},
	{
		"name": "San Cristobal",
		"id": "677",
		"country_id": "CD",
		"longitude": "NULL",
		"latitude": "NULL"
	},
	{
		"name": "San Juan",
		"id": "678",
		"country_id": "CD",
		"longitude": "NULL",
		"latitude": "NULL"
	},
	{
		"name": "San Pedro de Macoris",
		"id": "679",
		"country_id": "CD",
		"longitude": "NULL",
		"latitude": "NULL"
	},
	{
		"name": "Cotui",
		"id": "680",
		"country_id": "CD",
		"longitude": "NULL",
		"latitude": "NULL"
	},
	{
		"name": "Santiago",
		"id": "681",
		"country_id": "CD",
		"longitude": "NULL",
		"latitude": "NULL"
	},
	{
		"name": "Sabaneta",
		"id": "682",
		"country_id": "CD",
		"longitude": "NULL",
		"latitude": "NULL"
	},
	{
		"name": "Mao",
		"id": "683",
		"country_id": "CD",
		"longitude": "NULL",
		"latitude": "NULL"
	},
	{
		"name": "Bonao",
		"id": "684",
		"country_id": "CD",
		"longitude": "NULL",
		"latitude": "NULL"
	},
	{
		"name": "Monte Plata",
		"id": "685",
		"country_id": "CD",
		"longitude": "NULL",
		"latitude": "NULL"
	},
	{
		"name": "Hato Mayor",
		"id": "686",
		"country_id": "CD",
		"longitude": "NULL",
		"latitude": "NULL"
	},
	{
		"name": "Guatemala city",
		"id": "687",
		"country_id": "GT",
		"longitude": "-90.526966",
		"latitude": "14.621135"
	},
	{
		"name": "Guastatoya",
		"id": "688",
		"country_id": "GT",
		"longitude": "NULL",
		"latitude": "NULL"
	},
	{
		"name": "Antigua Guatemata",
		"id": "689",
		"country_id": "GT",
		"longitude": "NULL",
		"latitude": "NULL"
	},
	{
		"name": "Chimaltenango",
		"id": "690",
		"country_id": "GT",
		"longitude": "-90.819999",
		"latitude": "14.661999"
	},
	{
		"name": "Escuintla",
		"id": "691",
		"country_id": "GT",
		"longitude": "-90.779999",
		"latitude": "14.300405"
	},
	{
		"name": "Cuilapa",
		"id": "692",
		"country_id": "GT",
		"longitude": "-90.297999",
		"latitude": "14.279004"
	},
	{
		"name": "Solol",
		"id": "693",
		"country_id": "GT",
		"longitude": "NULL",
		"latitude": "NULL"
	},
	{
		"name": "Totonicapan",
		"id": "694",
		"country_id": "GT",
		"longitude": "-91.358001",
		"latitude": "14.913999"
	},
	{
		"name": "Quetzaltenango",
		"id": "695",
		"country_id": "GT",
		"longitude": "-91.520006",
		"latitude": "14.829959"
	},
	{
		"name": "Mozatenago",
		"id": "696",
		"country_id": "GT",
		"longitude": "NULL",
		"latitude": "NULL"
	},
	{
		"name": "Retalhuleu",
		"id": "697",
		"country_id": "GT",
		"longitude": "-91.677015",
		"latitude": "14.537097"
	},
	{
		"name": "San Marcos",
		"id": "698",
		"country_id": "GT",
		"longitude": "-91.8",
		"latitude": "14.966001"
	},
	{
		"name": "Huehuetenango",
		"id": "699",
		"country_id": "GT",
		"longitude": "-91.469983",
		"latitude": "15.320394"
	},
	{
		"name": "Santa Cruz del Quinche",
		"id": "700",
		"country_id": "GT",
		"longitude": "NULL",
		"latitude": "NULL"
	},
	{
		"name": "Salama",
		"id": "701",
		"country_id": "GT",
		"longitude": "-90.314001",
		"latitude": "15.102999"
	},
	{
		"name": "Coban",
		"id": "702",
		"country_id": "GT",
		"longitude": "-90.379998",
		"latitude": "15.469998"
	},
	{
		"name": "Puerto Barrios",
		"id": "703",
		"country_id": "GT",
		"longitude": "-88.592652",
		"latitude": "15.717495"
	},
	{
		"name": "Zacapa",
		"id": "704",
		"country_id": "GT",
		"longitude": "-89.529003",
		"latitude": "14.972004"
	},
	{
		"name": "Chiquimula",
		"id": "705",
		"country_id": "GT",
		"longitude": "-89.543997",
		"latitude": "14.796999"
	},
	{
		"name": "Jalapa",
		"id": "706",
		"country_id": "GT",
		"longitude": "-89.989002",
		"latitude": "14.633001"
	},
	{
		"name": "Jutiapa",
		"id": "707",
		"country_id": "GT",
		"longitude": "-89.900001",
		"latitude": "14.289992"
	},
	{
		"name": "Other cities/towns",
		"id": "708",
		"country_id": "GT",
		"longitude": "NULL",
		"latitude": "NULL"
	},
	{
		"name": "Other cities/towns",
		"id": "709",
		"country_id": "HT",
		"longitude": "NULL",
		"latitude": "NULL"
	},
	{
		"name": "Managua",
		"id": "710",
		"country_id": "NI",
		"longitude": "-86.268492",
		"latitude": "12.153017"
	},
	{
		"name": "Jinotega",
		"id": "711",
		"country_id": "NI",
		"longitude": "-86.000004",
		"latitude": "13.091004"
	},
	{
		"name": "Esteli",
		"id": "712",
		"country_id": "NI",
		"longitude": "-86.359985",
		"latitude": "13.089988"
	},
	{
		"name": "Chinandega",
		"id": "713",
		"country_id": "NI",
		"longitude": "-87.130041",
		"latitude": "12.630378"
	},
	{
		"name": "Leon",
		"id": "714",
		"country_id": "NI",
		"longitude": "-86.879436",
		"latitude": "12.435557"
	},
	{
		"name": "Matagalpa",
		"id": "715",
		"country_id": "NI",
		"longitude": "-85.916653",
		"latitude": "12.917078"
	},
	{
		"name": "Masaya",
		"id": "716",
		"country_id": "NI",
		"longitude": "-86.094999",
		"latitude": "11.969001"
	},
	{
		"name": "Granada",
		"id": "717",
		"country_id": "NI",
		"longitude": "-85.949984",
		"latitude": "11.933728"
	},
	{
		"name": "Other cities/towns",
		"id": "718",
		"country_id": "NI",
		"longitude": "NULL",
		"latitude": "NULL"
	},
	{
		"name": "Lima",
		"id": "719",
		"country_id": "PE",
		"longitude": "-77.050062",
		"latitude": "-12.048013"
	},
	{
		"name": "Trujillo",
		"id": "720",
		"country_id": "PE",
		"longitude": "-79.019968",
		"latitude": "-8.120035"
	},
	{
		"name": "Other cities/towns",
		"id": "721",
		"country_id": "PE",
		"longitude": "NULL",
		"latitude": "NULL"
	},
	{
		"name": "Chimbote",
		"id": "722",
		"country_id": "PE",
		"longitude": "-78.569995",
		"latitude": "-9.070003"
	},
	{
		"name": "Arequipa",
		"id": "723",
		"country_id": "PE",
		"longitude": "-71.530011",
		"latitude": "-16.419994"
	},
	{
		"name": "Cusco",
		"id": "724",
		"country_id": "PE",
		"longitude": "-71.972155",
		"latitude": "-13.525028"
	},
	{
		"name": "Huancayo",
		"id": "725",
		"country_id": "PE",
		"longitude": "-75.20002",
		"latitude": "-12.08"
	},
	{
		"name": "Chiclayo",
		"id": "726",
		"country_id": "PE",
		"longitude": "-79.836585",
		"latitude": "-6.762909"
	},
	{
		"name": "Iquitos",
		"id": "727",
		"country_id": "PE",
		"longitude": "-73.25001",
		"latitude": "-3.750018"
	},
	{
		"name": "Piura",
		"id": "728",
		"country_id": "PE",
		"longitude": "-80.629973",
		"latitude": "-5.210032"
	},
	{
		"name": "Tacna",
		"id": "729",
		"country_id": "PE",
		"longitude": "-70.250012",
		"latitude": "-18.000001"
	},
	{
		"name": "Port of spain",
		"id": "730",
		"country_id": "TT",
		"longitude": "NULL",
		"latitude": "NULL"
	},
	{
		"name": "San Fernando",
		"id": "731",
		"country_id": "TT",
		"longitude": "-61.459377",
		"latitude": "10.280462"
	},
	{
		"name": "Chaguanas",
		"id": "732",
		"country_id": "TT",
		"longitude": "NULL",
		"latitude": "NULL"
	},
	{
		"name": "Arima",
		"id": "733",
		"country_id": "TT",
		"longitude": "NULL",
		"latitude": "NULL"
	},
	{
		"name": "Other cities",
		"id": "734",
		"country_id": "TT",
		"longitude": "NULL",
		"latitude": "NULL"
	},
	{
		"name": "Tirana",
		"id": "735",
		"country_id": "AL",
		"longitude": "19.818883",
		"latitude": "41.327541"
	},
	{
		"name": "Other cities",
		"id": "736",
		"country_id": "AL",
		"longitude": "NULL",
		"latitude": "NULL"
	},
	{
		"name": "Ashtarak",
		"id": "737",
		"country_id": "AM",
		"longitude": "44.359167",
		"latitude": "40.301667"
	},
	{
		"name": "Artashat",
		"id": "738",
		"country_id": "AM",
		"longitude": "44.550556",
		"latitude": "39.953889"
	},
	{
		"name": "Armavil",
		"id": "739",
		"country_id": "AM",
		"longitude": "NULL",
		"latitude": "NULL"
	},
	{
		"name": "Gavar",
		"id": "740",
		"country_id": "AM",
		"longitude": "NULL",
		"latitude": "NULL"
	},
	{
		"name": "Vanadzor",
		"id": "741",
		"country_id": "AM",
		"longitude": "44.488282",
		"latitude": "40.812766"
	},
	{
		"name": "Hrazdan",
		"id": "742",
		"country_id": "AM",
		"longitude": "NULL",
		"latitude": "NULL"
	},
	{
		"name": "Gyumir",
		"id": "743",
		"country_id": "AM",
		"longitude": "NULL",
		"latitude": "NULL"
	},
	{
		"name": "Kapan",
		"id": "744",
		"country_id": "AM",
		"longitude": "NULL",
		"latitude": "NULL"
	},
	{
		"name": "Yegheknadzor",
		"id": "745",
		"country_id": "AM",
		"longitude": "NULL",
		"latitude": "NULL"
	},
	{
		"name": "Idjevan",
		"id": "746",
		"country_id": "AM",
		"longitude": "NULL",
		"latitude": "NULL"
	},
	{
		"name": "Other cities/towns",
		"id": "747",
		"country_id": "AM",
		"longitude": "NULL",
		"latitude": "NULL"
	},
	{
		"name": "Absheron",
		"id": "748",
		"country_id": "AZ",
		"longitude": "NULL",
		"latitude": "NULL"
	},
	{
		"name": "Agdash",
		"id": "749",
		"country_id": "AZ",
		"longitude": "NULL",
		"latitude": "NULL"
	},
	{
		"name": "Agjabedi",
		"id": "750",
		"country_id": "AZ",
		"longitude": "NULL",
		"latitude": "NULL"
	},
	{
		"name": "Agstafa",
		"id": "751",
		"country_id": "AZ",
		"longitude": "NULL",
		"latitude": "NULL"
	},
	{
		"name": "Ali Bayramli",
		"id": "752",
		"country_id": "AZ",
		"longitude": "48.920259",
		"latitude": "39.932303"
	},
	{
		"name": "Azizbeyov",
		"id": "753",
		"country_id": "AZ",
		"longitude": "NULL",
		"latitude": "NULL"
	},
	{
		"name": "Babek",
		"id": "754",
		"country_id": "AZ",
		"longitude": "NULL",
		"latitude": "NULL"
	},
	{
		"name": "Berde",
		"id": "755",
		"country_id": "AZ",
		"longitude": "NULL",
		"latitude": "NULL"
	},
	{
		"name": "Beylegan",
		"id": "756",
		"country_id": "AZ",
		"longitude": "NULL",
		"latitude": "NULL"
	},
	{
		"name": "Binagadi",
		"id": "757",
		"country_id": "AZ",
		"longitude": "NULL",
		"latitude": "NULL"
	},
	{
		"name": "Devechi",
		"id": "758",
		"country_id": "AZ",
		"longitude": "NULL",
		"latitude": "NULL"
	},
	{
		"name": "Gakh",
		"id": "759",
		"country_id": "AZ",
		"longitude": "NULL",
		"latitude": "NULL"
	},
	{
		"name": "Garadagh",
		"id": "760",
		"country_id": "AZ",
		"longitude": "NULL",
		"latitude": "NULL"
	},
	{
		"name": "Gedabey",
		"id": "761",
		"country_id": "AZ",
		"longitude": "NULL",
		"latitude": "NULL"
	},
	{
		"name": "Geychay",
		"id": "762",
		"country_id": "AZ",
		"longitude": "NULL",
		"latitude": "NULL"
	},
	{
		"name": "Goranboy",
		"id": "763",
		"country_id": "AZ",
		"longitude": "46.789722",
		"latitude": "40.610278"
	},
	{
		"name": "Gusar",
		"id": "764",
		"country_id": "AZ",
		"longitude": "NULL",
		"latitude": "NULL"
	},
	{
		"name": "Imishli",
		"id": "765",
		"country_id": "AZ",
		"longitude": "NULL",
		"latitude": "NULL"
	},
	{
		"name": "Ismayilli",
		"id": "766",
		"country_id": "AZ",
		"longitude": "NULL",
		"latitude": "NULL"
	},
	{
		"name": "Jalilabad",
		"id": "767",
		"country_id": "AZ",
		"longitude": "NULL",
		"latitude": "NULL"
	},
	{
		"name": "Kepez",
		"id": "768",
		"country_id": "AZ",
		"longitude": "NULL",
		"latitude": "NULL"
	},
	{
		"name": "Khachmaz",
		"id": "769",
		"country_id": "AZ",
		"longitude": "NULL",
		"latitude": "NULL"
	},
	{
		"name": "Khanlar",
		"id": "770",
		"country_id": "AZ",
		"longitude": "NULL",
		"latitude": "NULL"
	},
	{
		"name": "Khatai",
		"id": "771",
		"country_id": "AZ",
		"longitude": "NULL",
		"latitude": "NULL"
	},
	{
		"name": "Lankaran",
		"id": "772",
		"country_id": "AZ",
		"longitude": "48.851064",
		"latitude": "38.754003"
	},
	{
		"name": "Masally",
		"id": "773",
		"country_id": "AZ",
		"longitude": "NULL",
		"latitude": "NULL"
	},
	{
		"name": "Mingechevir",
		"id": "774",
		"country_id": "AZ",
		"longitude": "NULL",
		"latitude": "NULL"
	},
	{
		"name": "Nakhchivan",
		"id": "775",
		"country_id": "AZ",
		"longitude": "NULL",
		"latitude": "NULL"
	},
	{
		"name": "Narimanov",
		"id": "776",
		"country_id": "AZ",
		"longitude": "NULL",
		"latitude": "NULL"
	},
	{
		"name": "Nasimi",
		"id": "777",
		"country_id": "AZ",
		"longitude": "NULL",
		"latitude": "NULL"
	},
	{
		"name": "Nizami",
		"id": "778",
		"country_id": "AZ",
		"longitude": "NULL",
		"latitude": "NULL"
	},
	{
		"name": "Neftchala",
		"id": "779",
		"country_id": "AZ",
		"longitude": "NULL",
		"latitude": "NULL"
	},
	{
		"name": "Saatly",
		"id": "780",
		"country_id": "AZ",
		"longitude": "NULL",
		"latitude": "NULL"
	},
	{
		"name": "Sabail",
		"id": "781",
		"country_id": "AZ",
		"longitude": "NULL",
		"latitude": "NULL"
	},
	{
		"name": "Sabirabad",
		"id": "782",
		"country_id": "AZ",
		"longitude": "NULL",
		"latitude": "NULL"
	},
	{
		"name": "Sabunchu",
		"id": "783",
		"country_id": "AZ",
		"longitude": "NULL",
		"latitude": "NULL"
	},
	{
		"name": "Samakhy",
		"id": "784",
		"country_id": "AZ",
		"longitude": "NULL",
		"latitude": "NULL"
	},
	{
		"name": "Salyan",
		"id": "785",
		"country_id": "AZ",
		"longitude": "NULL",
		"latitude": "NULL"
	},
	{
		"name": "Shamkir",
		"id": "786",
		"country_id": "AZ",
		"longitude": "NULL",
		"latitude": "NULL"
	},
	{
		"name": "Sheki",
		"id": "787",
		"country_id": "AZ",
		"longitude": "NULL",
		"latitude": "NULL"
	},
	{
		"name": "Siyazan",
		"id": "788",
		"country_id": "AZ",
		"longitude": "NULL",
		"latitude": "NULL"
	},
	{
		"name": "Sumgait",
		"id": "789",
		"country_id": "AZ",
		"longitude": "NULL",
		"latitude": "NULL"
	},
	{
		"name": "Surakhany",
		"id": "790",
		"country_id": "AZ",
		"longitude": "NULL",
		"latitude": "NULL"
	},
	{
		"name": "Terter",
		"id": "791",
		"country_id": "AZ",
		"longitude": "NULL",
		"latitude": "NULL"
	},
	{
		"name": "Yevlakh",
		"id": "792",
		"country_id": "AZ",
		"longitude": "NULL",
		"latitude": "NULL"
	},
	{
		"name": "Yasamal",
		"id": "793",
		"country_id": "AZ",
		"longitude": "NULL",
		"latitude": "NULL"
	},
	{
		"name": "Zagatala",
		"id": "794",
		"country_id": "AZ",
		"longitude": "NULL",
		"latitude": "NULL"
	},
	{
		"name": "Zardab",
		"id": "795",
		"country_id": "AZ",
		"longitude": "NULL",
		"latitude": "NULL"
	},
	{
		"name": "Other cities",
		"id": "796",
		"country_id": "AZ",
		"longitude": "NULL",
		"latitude": "NULL"
	},
	{
		"name": "Ganja Gazakh",
		"id": "797",
		"country_id": "AZ",
		"longitude": "NULL",
		"latitude": "NULL"
	},
	{
		"name": "Shaki zaqatala",
		"id": "798",
		"country_id": "AZ",
		"longitude": "NULL",
		"latitude": "NULL"
	},
	{
		"name": "Guba Khachmaz",
		"id": "799",
		"country_id": "AZ",
		"longitude": "NULL",
		"latitude": "NULL"
	},
	{
		"name": "Aran",
		"id": "800",
		"country_id": "AZ",
		"longitude": "NULL",
		"latitude": "NULL"
	},
	{
		"name": "Yukhari Karabakh",
		"id": "801",
		"country_id": "AZ",
		"longitude": "NULL",
		"latitude": "NULL"
	},
	{
		"name": "Dakhlik Shirvan",
		"id": "802",
		"country_id": "AZ",
		"longitude": "NULL",
		"latitude": "NULL"
	},
	{
		"name": "Other cities/towns",
		"id": "803",
		"country_id": "BD",
		"longitude": "NULL",
		"latitude": "NULL"
	},
	{
		"name": "Barisal",
		"id": "804",
		"country_id": "BD",
		"longitude": "90.37499",
		"latitude": "22.700409"
	},
	{
		"name": "Sylhet",
		"id": "805",
		"country_id": "BD",
		"longitude": "91.873606",
		"latitude": "24.903556"
	},
	{
		"name": "Phnom penh",
		"id": "806",
		"country_id": "KH",
		"longitude": "11.55003",
		"latitude": "104.916634"
	},
	{
		"name": "Siem Reap",
		"id": "807",
		"country_id": "KH",
		"longitude": "103.850033",
		"latitude": "13.366638"
	},
	{
		"name": "Sisophon",
		"id": "808",
		"country_id": "KH",
		"longitude": "102.983316",
		"latitude": "13.583756"
	},
	{
		"name": "kampong Cham",
		"id": "809",
		"country_id": "KH",
		"longitude": "NULL",
		"latitude": "NULL"
	},
	{
		"name": "Kampong Speu",
		"id": "810",
		"country_id": "KH",
		"longitude": "NULL",
		"latitude": "NULL"
	},
	{
		"name": "Kampong Thum",
		"id": "811",
		"country_id": "KH",
		"longitude": "104.888998",
		"latitude": "12.711996"
	},
	{
		"name": "Ta Khmau",
		"id": "812",
		"country_id": "KH",
		"longitude": "NULL",
		"latitude": "NULL"
	},
	{
		"name": "Prey Veng",
		"id": "813",
		"country_id": "KH",
		"longitude": "105.324004",
		"latitude": "11.484"
	},
	{
		"name": "Pursat",
		"id": "814",
		"country_id": "KH",
		"longitude": "103.916696",
		"latitude": "12.533691"
	},
	{
		"name": "Svay Rieng",
		"id": "815",
		"country_id": "KH",
		"longitude": "105.801004",
		"latitude": "11.079999"
	},
	{
		"name": "Takev",
		"id": "816",
		"country_id": "KH",
		"longitude": "104.783309",
		"latitude": "10.98376"
	},
	{
		"name": "Samraong",
		"id": "817",
		"country_id": "KH",
		"longitude": "NULL",
		"latitude": "NULL"
	},
	{
		"name": "Other cities/towns",
		"id": "818",
		"country_id": "KH",
		"longitude": "NULL",
		"latitude": "NULL"
	},
	{
		"name": "Kampong Chhnang",
		"id": "819",
		"country_id": "KH",
		"longitude": "NULL",
		"latitude": "NULL"
	},
	{
		"name": "Mumbai",
		"id": "820",
		"country_id": "IN",
		"longitude": "72.856989",
		"latitude": "19.01699"
	},
	{
		"name": "Kolkota",
		"id": "821",
		"country_id": "IN",
		"longitude": "NULL",
		"latitude": "NULL"
	},
	{
		"name": "New Delhi",
		"id": "822",
		"country_id": "IN",
		"longitude": "77.19998",
		"latitude": "28.600023"
	},
	{
		"name": "Hyberabad",
		"id": "823",
		"country_id": "IN",
		"longitude": "NULL",
		"latitude": "NULL"
	},
	{
		"name": "Pune",
		"id": "824",
		"country_id": "IN",
		"longitude": "73.850004",
		"latitude": "18.530018"
	},
	{
		"name": "Kochi",
		"id": "825",
		"country_id": "IN",
		"longitude": "76.223916",
		"latitude": "10.015008"
	},
	{
		"name": "Pondichery",
		"id": "826",
		"country_id": "IN",
		"longitude": "NULL",
		"latitude": "NULL"
	},
	{
		"name": "Akola",
		"id": "827",
		"country_id": "IN",
		"longitude": "77.010017",
		"latitude": "20.709988"
	},
	{
		"name": "Yamunanagar",
		"id": "828",
		"country_id": "IN",
		"longitude": "NULL",
		"latitude": "NULL"
	},
	{
		"name": "Kharagpur",
		"id": "829",
		"country_id": "IN",
		"longitude": "NULL",
		"latitude": "NULL"
	},
	{
		"name": "Hisar",
		"id": "830",
		"country_id": "IN",
		"longitude": "75.725031",
		"latitude": "29.169988"
	},
	{
		"name": "Agartala",
		"id": "831",
		"country_id": "IN",
		"longitude": "91.279999",
		"latitude": "23.835404"
	},
	{
		"name": "Gadag Betigeri",
		"id": "832",
		"country_id": "IN",
		"longitude": "NULL",
		"latitude": "NULL"
	},
	{
		"name": "Krishnanagar",
		"id": "833",
		"country_id": "IN",
		"longitude": "88.530038",
		"latitude": "23.380342"
	},
	{
		"name": "Other cities/towns",
		"id": "834",
		"country_id": "IN",
		"longitude": "NULL",
		"latitude": "NULL"
	},
	{
		"name": "Surabaja",
		"id": "835",
		"country_id": "ID",
		"longitude": "112.750833",
		"latitude": "-7.249236"
	},
	{
		"name": "Surakarta",
		"id": "836",
		"country_id": "ID",
		"longitude": "110.825008",
		"latitude": "-7.564979"
	},
	{
		"name": "Denpasar",
		"id": "837",
		"country_id": "ID",
		"longitude": "115.219985",
		"latitude": "-8.650029"
	},
	{
		"name": "Jambi",
		"id": "838",
		"country_id": "ID",
		"longitude": "103.610048",
		"latitude": "-1.589995"
	},
	{
		"name": "Purwokerto",
		"id": "839",
		"country_id": "ID",
		"longitude": "NULL",
		"latitude": "NULL"
	},
	{
		"name": "Kediri",
		"id": "840",
		"country_id": "ID",
		"longitude": "112.000026",
		"latitude": "-7.789616"
	},
	{
		"name": "Palu",
		"id": "841",
		"country_id": "ID",
		"longitude": "119.833037",
		"latitude": "-0.907039"
	},
	{
		"name": "Bitung",
		"id": "842",
		"country_id": "ID",
		"longitude": "NULL",
		"latitude": "NULL"
	},
	{
		"name": "Dumai",
		"id": "843",
		"country_id": "ID",
		"longitude": "NULL",
		"latitude": "NULL"
	},
	{
		"name": "Other cities/towns",
		"id": "844",
		"country_id": "ID",
		"longitude": "NULL",
		"latitude": "NULL"
	},
	{
		"name": "Jaya Pura",
		"id": "845",
		"country_id": "ID",
		"longitude": "NULL",
		"latitude": "NULL"
	},
	{
		"name": "Duhuk",
		"id": "846",
		"country_id": "IQ",
		"longitude": "NULL",
		"latitude": "NULL"
	},
	{
		"name": "Al Mawsil",
		"id": "847",
		"country_id": "IQ",
		"longitude": "NULL",
		"latitude": "NULL"
	},
	{
		"name": "Sulimania",
		"id": "848",
		"country_id": "IQ",
		"longitude": "NULL",
		"latitude": "NULL"
	},
	{
		"name": "Abril",
		"id": "849",
		"country_id": "IQ",
		"longitude": "NULL",
		"latitude": "NULL"
	},
	{
		"name": "Ramadi",
		"id": "850",
		"country_id": "IQ",
		"longitude": "NULL",
		"latitude": "NULL"
	},
	{
		"name": "Babil",
		"id": "851",
		"country_id": "IQ",
		"longitude": "NULL",
		"latitude": "NULL"
	},
	{
		"name": "Karbala",
		"id": "852",
		"country_id": "IQ",
		"longitude": "44.024486",
		"latitude": "32.61492"
	},
	{
		"name": "Wasit",
		"id": "853",
		"country_id": "IQ",
		"longitude": "NULL",
		"latitude": "NULL"
	},
	{
		"name": "Tikrit",
		"id": "854",
		"country_id": "IQ",
		"longitude": "43.676962",
		"latitude": "34.597047"
	},
	{
		"name": "Najaf",
		"id": "855",
		"country_id": "IQ",
		"longitude": "NULL",
		"latitude": "NULL"
	},
	{
		"name": "Samawah",
		"id": "856",
		"country_id": "IQ",
		"longitude": "NULL",
		"latitude": "NULL"
	},
	{
		"name": "Other cities",
		"id": "857",
		"country_id": "IQ",
		"longitude": "NULL",
		"latitude": "NULL"
	},
	{
		"name": "Balqa",
		"id": "858",
		"country_id": "JO",
		"longitude": "NULL",
		"latitude": "NULL"
	},
	{
		"name": "Zarqa",
		"id": "859",
		"country_id": "JO",
		"longitude": "NULL",
		"latitude": "NULL"
	},
	{
		"name": "Madaba",
		"id": "860",
		"country_id": "JO",
		"longitude": "NULL",
		"latitude": "NULL"
	},
	{
		"name": "Irbid",
		"id": "861",
		"country_id": "JO",
		"longitude": "35.849998",
		"latitude": "32.549989"
	},
	{
		"name": "Mafraq",
		"id": "862",
		"country_id": "JO",
		"longitude": "NULL",
		"latitude": "NULL"
	},
	{
		"name": "Jarash",
		"id": "863",
		"country_id": "JO",
		"longitude": "NULL",
		"latitude": "NULL"
	},
	{
		"name": "Ajlouon",
		"id": "864",
		"country_id": "JO",
		"longitude": "NULL",
		"latitude": "NULL"
	},
	{
		"name": "Karak",
		"id": "865",
		"country_id": "JO",
		"longitude": "NULL",
		"latitude": "NULL"
	},
	{
		"name": "Tafielah",
		"id": "866",
		"country_id": "JO",
		"longitude": "NULL",
		"latitude": "NULL"
	},
	{
		"name": "Maan",
		"id": "867",
		"country_id": "JO",
		"longitude": "NULL",
		"latitude": "NULL"
	},
	{
		"name": "Aqaba",
		"id": "868",
		"country_id": "JO",
		"longitude": "NULL",
		"latitude": "NULL"
	},
	{
		"name": "Other cities/towns",
		"id": "869",
		"country_id": "KZ",
		"longitude": "NULL",
		"latitude": "NULL"
	},
	{
		"name": "Shimkent",
		"id": "870",
		"country_id": "KZ",
		"longitude": "NULL",
		"latitude": "NULL"
	},
	{
		"name": "Zhezkazgan",
		"id": "871",
		"country_id": "KZ",
		"longitude": "67.770013",
		"latitude": "47.779989"
	},
	{
		"name": "Astana",
		"id": "872",
		"country_id": "KZ",
		"longitude": "71.427774",
		"latitude": "51.181125"
	},
	{
		"name": "Other cities",
		"id": "873",
		"country_id": "KZ",
		"longitude": "NULL",
		"latitude": "NULL"
	},
	{
		"name": "Chisinau",
		"id": "874",
		"country_id": "MD",
		"longitude": "28.857711",
		"latitude": "47.005024"
	},
	{
		"name": "Other cities/towns",
		"id": "875",
		"country_id": "MD",
		"longitude": "NULL",
		"latitude": "NULL"
	},
	{
		"name": "Ulaanmaatar",
		"id": "876",
		"country_id": "MN",
		"longitude": "NULL",
		"latitude": "NULL"
	},
	{
		"name": "Erdenet",
		"id": "877",
		"country_id": "MN",
		"longitude": "104.118337",
		"latitude": "49.053297"
	},
	{
		"name": "Darchan",
		"id": "878",
		"country_id": "MN",
		"longitude": "NULL",
		"latitude": "NULL"
	},
	{
		"name": "Other cities",
		"id": "879",
		"country_id": "MN",
		"longitude": "NULL",
		"latitude": "NULL"
	},
	{
		"name": "Kathmandu",
		"id": "880",
		"country_id": "NP",
		"longitude": "85.316642",
		"latitude": "27.716692"
	},
	{
		"name": "Other cities/towns",
		"id": "881",
		"country_id": "NP",
		"longitude": "NULL",
		"latitude": "NULL"
	},
	{
		"name": "Karachi",
		"id": "882",
		"country_id": "PK",
		"longitude": "66.990009",
		"latitude": "24.869992"
	},
	{
		"name": "Faisalabad",
		"id": "883",
		"country_id": "PK",
		"longitude": "73.109997",
		"latitude": "31.409981"
	},
	{
		"name": "Islamabad",
		"id": "884",
		"country_id": "PK",
		"longitude": "73.166634",
		"latitude": "33.699996"
	},
	{
		"name": "Other cities/towns",
		"id": "885",
		"country_id": "PK",
		"longitude": "NULL",
		"latitude": "NULL"
	},
	{
		"name": "Balochistan",
		"id": "886",
		"country_id": "PK",
		"longitude": "NULL",
		"latitude": "NULL"
	},
	{
		"name": "Metro Manila",
		"id": "887",
		"country_id": "PH",
		"longitude": "NULL",
		"latitude": "NULL"
	},
	{
		"name": "Cebu",
		"id": "888",
		"country_id": "PH",
		"longitude": "123.900075",
		"latitude": "10.319976"
	},
	{
		"name": "Cagayan",
		"id": "889",
		"country_id": "PH",
		"longitude": "NULL",
		"latitude": "NULL"
	},
	{
		"name": "Bacolod",
		"id": "890",
		"country_id": "PH",
		"longitude": "122.981682",
		"latitude": "10.631688"
	},
	{
		"name": "Other cities/towns",
		"id": "891",
		"country_id": "PH",
		"longitude": "NULL",
		"latitude": "NULL"
	},
	{
		"name": "Damascus",
		"id": "892",
		"country_id": "SY",
		"longitude": "36.299996",
		"latitude": "33.500034"
	},
	{
		"name": "Hims",
		"id": "893",
		"country_id": "SY",
		"longitude": "36.720022",
		"latitude": "34.729959"
	},
	{
		"name": "Hama",
		"id": "894",
		"country_id": "SY",
		"longitude": "NULL",
		"latitude": "NULL"
	},
	{
		"name": "Other cities",
		"id": "895",
		"country_id": "SY",
		"longitude": "NULL",
		"latitude": "NULL"
	},
	{
		"name": "Instabul",
		"id": "896",
		"country_id": "TR",
		"longitude": "NULL",
		"latitude": "NULL"
	},
	{
		"name": "Anakara",
		"id": "897",
		"country_id": "TR",
		"longitude": "NULL",
		"latitude": "NULL"
	},
	{
		"name": "Izmir",
		"id": "898",
		"country_id": "TR",
		"longitude": "27.151794",
		"latitude": "38.43615"
	},
	{
		"name": "Bursa",
		"id": "899",
		"country_id": "TR",
		"longitude": "29.069998",
		"latitude": "40.199987"
	},
	{
		"name": "Adana",
		"id": "900",
		"country_id": "TR",
		"longitude": "35.320004",
		"latitude": "36.994989"
	},
	{
		"name": "Gaziantep",
		"id": "901",
		"country_id": "TR",
		"longitude": "37.384994",
		"latitude": "37.074984"
	},
	{
		"name": "Karaman",
		"id": "902",
		"country_id": "TR",
		"longitude": "33.215016",
		"latitude": "37.181541"
	},
	{
		"name": "Antalya",
		"id": "903",
		"country_id": "TR",
		"longitude": "30.699976",
		"latitude": "36.889982"
	},
	{
		"name": "Other cities/towns",
		"id": "904",
		"country_id": "TR",
		"longitude": "NULL",
		"latitude": "NULL"
	},
	{
		"name": "Malatya",
		"id": "905",
		"country_id": "TR",
		"longitude": "38.300029",
		"latitude": "38.370434"
	},
	{
		"name": "Van",
		"id": "906",
		"country_id": "TR",
		"longitude": "43.399976",
		"latitude": "38.49544"
	},
	{
		"name": "Kirrikkale",
		"id": "907",
		"country_id": "TR",
		"longitude": "NULL",
		"latitude": "NULL"
	},
	{
		"name": "Aksaray",
		"id": "908",
		"country_id": "TR",
		"longitude": "NULL",
		"latitude": "NULL"
	},
	{
		"name": "Kyiv",
		"id": "909",
		"country_id": "UA",
		"longitude": "30.516628",
		"latitude": "50.433367"
	},
	{
		"name": "Dnipropetrovska",
		"id": "910",
		"country_id": "UA",
		"longitude": "NULL",
		"latitude": "NULL"
	},
	{
		"name": "Donecka",
		"id": "911",
		"country_id": "UA",
		"longitude": "NULL",
		"latitude": "NULL"
	},
	{
		"name": "Zaporizka",
		"id": "912",
		"country_id": "UA",
		"longitude": "NULL",
		"latitude": "NULL"
	},
	{
		"name": "Odeska",
		"id": "913",
		"country_id": "UA",
		"longitude": "NULL",
		"latitude": "NULL"
	},
	{
		"name": "Other cities",
		"id": "914",
		"country_id": "UA",
		"longitude": "NULL",
		"latitude": "NULL"
	},
	{
		"name": "AR Cremia",
		"id": "915",
		"country_id": "UA",
		"longitude": "NULL",
		"latitude": "NULL"
	},
	{
		"name": "Vinnytza",
		"id": "916",
		"country_id": "UA",
		"longitude": "NULL",
		"latitude": "NULL"
	},
	{
		"name": "Volyn",
		"id": "917",
		"country_id": "UA",
		"longitude": "NULL",
		"latitude": "NULL"
	},
	{
		"name": "Dniproprtrovsk",
		"id": "918",
		"country_id": "UA",
		"longitude": "NULL",
		"latitude": "NULL"
	},
	{
		"name": "Zhytomyr",
		"id": "919",
		"country_id": "UA",
		"longitude": "28.662168",
		"latitude": "50.245575"
	},
	{
		"name": "Uzhorod",
		"id": "920",
		"country_id": "UA",
		"longitude": "NULL",
		"latitude": "NULL"
	},
	{
		"name": "Zaporizhzhia",
		"id": "921",
		"country_id": "UA",
		"longitude": "NULL",
		"latitude": "NULL"
	},
	{
		"name": "Ivano Frankivsk",
		"id": "922",
		"country_id": "UA",
		"longitude": "NULL",
		"latitude": "NULL"
	},
	{
		"name": "Kirovohrad",
		"id": "923",
		"country_id": "UA",
		"longitude": "32.260294",
		"latitude": "48.504054"
	},
	{
		"name": "Luhansk",
		"id": "924",
		"country_id": "UA",
		"longitude": "39.334384",
		"latitude": "48.56976"
	},
	{
		"name": "Lviv",
		"id": "925",
		"country_id": "UA",
		"longitude": "NULL",
		"latitude": "NULL"
	},
	{
		"name": "Mikolayiv",
		"id": "926",
		"country_id": "UA",
		"longitude": "NULL",
		"latitude": "NULL"
	},
	{
		"name": "Odesa",
		"id": "927",
		"country_id": "UA",
		"longitude": "30.710001",
		"latitude": "46.490016"
	},
	{
		"name": "Poltava",
		"id": "928",
		"country_id": "UA",
		"longitude": "34.570282",
		"latitude": "49.57404"
	},
	{
		"name": "Rivne",
		"id": "929",
		"country_id": "UA",
		"longitude": "26.252806",
		"latitude": "50.616586"
	},
	{
		"name": "Sumy",
		"id": "930",
		"country_id": "UA",
		"longitude": "34.780864",
		"latitude": "50.924293"
	},
	{
		"name": "Ternopil",
		"id": "931",
		"country_id": "UA",
		"longitude": "25.582149",
		"latitude": "49.53598"
	},
	{
		"name": "Kharkiv",
		"id": "932",
		"country_id": "UA",
		"longitude": "36.250025",
		"latitude": "49.999983"
	},
	{
		"name": "Kherson",
		"id": "933",
		"country_id": "UA",
		"longitude": "32.600665",
		"latitude": "46.632537"
	},
	{
		"name": "Khmelnytskyi",
		"id": "934",
		"country_id": "UA",
		"longitude": "NULL",
		"latitude": "NULL"
	},
	{
		"name": "Cherkasy",
		"id": "935",
		"country_id": "UA",
		"longitude": "32.0709",
		"latitude": "49.43472"
	},
	{
		"name": "Chernivtsy",
		"id": "936",
		"country_id": "UA",
		"longitude": "NULL",
		"latitude": "NULL"
	},
	{
		"name": "Chernihiv",
		"id": "937",
		"country_id": "UA",
		"longitude": "31.301541",
		"latitude": "51.50493"
	},
	{
		"name": "Kyiv City",
		"id": "938",
		"country_id": "UA",
		"longitude": "NULL",
		"latitude": "NULL"
	},
	{
		"name": "City of Sevastopol",
		"id": "939",
		"country_id": "UA",
		"longitude": "NULL",
		"latitude": "NULL"
	},
	{
		"name": "Tashkent",
		"id": "940",
		"country_id": "UZ",
		"longitude": "69.294933",
		"latitude": "41.311702"
	},
	{
		"name": "Other cities/towns",
		"id": "941",
		"country_id": "UZ",
		"longitude": "NULL",
		"latitude": "NULL"
	},
	{
		"name": "Ho Chi Minh",
		"id": "942",
		"country_id": "VN",
		"longitude": "NULL",
		"latitude": "NULL"
	},
	{
		"name": "Ha Noi",
		"id": "943",
		"country_id": "VN",
		"longitude": "NULL",
		"latitude": "NULL"
	},
	{
		"name": "Hai Phong",
		"id": "944",
		"country_id": "VN",
		"longitude": "NULL",
		"latitude": "NULL"
	},
	{
		"name": "Other cities/towns",
		"id": "945",
		"country_id": "VN",
		"longitude": "NULL",
		"latitude": "NULL"
	},
	{
		"name": "Da Nang",
		"id": "946",
		"country_id": "VN",
		"longitude": "108.249971",
		"latitude": "16.060039"
	},
	{
		"name": "Sana'a",
		"id": "947",
		"country_id": "YE",
		"longitude": "NULL",
		"latitude": "NULL"
	},
	{
		"name": "Aden",
		"id": "948",
		"country_id": "YE",
		"longitude": "45.00949",
		"latitude": "12.779723"
	},
	{
		"name": "Taiz",
		"id": "949",
		"country_id": "YE",
		"longitude": "NULL",
		"latitude": "NULL"
	},
	{
		"name": "Other cities/towns",
		"id": "950",
		"country_id": "YE",
		"longitude": "NULL",
		"latitude": "NULL"
	},
	{
		"name": "Adan",
		"id": "951",
		"country_id": "YE",
		"longitude": "NULL",
		"latitude": "NULL"
	},
	{
		"name": "Ibb",
		"id": "952",
		"country_id": "YE",
		"longitude": "44.170885",
		"latitude": "13.975851"
	},
	{
		"name": "Other cities",
		"id": "953",
		"country_id": "YE",
		"longitude": "NULL",
		"latitude": "NULL"
	},
	{
		"name": "Brest",
		"id": "954",
		"country_id": "BY",
		"longitude": "23.69999",
		"latitude": "52.099984"
	},
	{
		"name": "Gomel",
		"id": "955",
		"country_id": "BY",
		"longitude": "NULL",
		"latitude": "NULL"
	},